UC2_Literal,Report Number,Report Date,Location,Beat,Neigborhood,NPU,Lat,Long,
ROBBERY,191511609,05/31/2019,2423 MARTIN L KING JR DR NW,108,Florida Heights,I,33.75183,-84.46623,
BURGLARY,191511253,05/31/2019,2031 CHICAGO AVE NW,107,Grove Park,J,33.76485,-84.45386,
LARCENY-NON VEHICLE,191512118,05/31/2019,2045 DONALD LEE HOLLOWELL PKWY NW,107,Grove Park,J,33.7774,-84.45214,
LARCENY-FROM VEHICLE,191510677,05/31/2019,3123 ELEANOR TER NW,112,Collier Heights,I,33.77746,-84.4887,
LARCENY-FROM VEHICLE,191510516,05/31/2019,2707 DONALD LEE HOLLOWELL PKWY NW,113,Brookview Heights,G,33.77774,-84.47583,
LARCENY-FROM VEHICLE,191511321,05/31/2019,3599 MARTIN L KING JR DR NW,111,Adamsville,H,33.75933,-84.50433,
LARCENY-NON VEHICLE,191512134,05/31/2019,2265 PERRY BLVD NW,110,Scotts Crossing,G,33.80595,-84.46416,
AUTO THEFT,191512043,05/31/2019,2305 DONALD LEE HOLLOWELL PKWY NW @CENTER HILL PARK,109,Center Hill,J,33.77704,-84.46053,
AUTO THEFT,191511957,05/31/2019,568 CHAPPELL RD NW,107,Grove Park,J,33.77075,-84.43407,
AUTO THEFT,191500403,05/30/2019,3746 CROSBY DR NW,114,Carroll Heights,H,33.7726,-84.51011,
AUTO THEFT,191500446,05/30/2019,2693 WASHINGTON ST NW,112,Collier Heights,I,33.77388,-84.47572,
AUTO THEFT,191500592,05/30/2019,952 BECKWITH ST SW,104,Ashview Heights,T,33.75229,-84.41868,
AUTO THEFT,191500237,05/30/2019,343 JOSEPH E LOWERY BLVD SW,104,Ashview Heights,T,33.74569,-84.41786,
LARCENY-NON VEHICLE,191500647,05/30/2019,3518 BOLFAIR DR NW,114,Carroll Heights,H,33.77714,-84.50256,
LARCENY-NON VEHICLE,191501980,05/30/2019,2423 MARTIN L KING JR DR NW,108,Florida Heights,I,33.75183,-84.46623,
LARCENY-FROM VEHICLE,191502432,05/30/2019,1609 JACKSON TRACE CT NW,113,Lincoln Homes,G,33.79976,-84.47582,
LARCENY-FROM VEHICLE,191501098,05/30/2019,1210 MENLO DR NW,103,Blandtown,D,33.78744,-84.42407,
LARCENY-NON VEHICLE,191501134,05/30/2019,1176 CHATTAHOOCHEE AVE NW,103,Blandtown,D,33.80058,-84.42561,
BURGLARY,191500355,05/30/2019,2100 SPINK ST NW,103,Riverside,D,33.80816,-84.46473,
AGG ASSAULT,191501016,05/30/2019,1012 WESTMOOR DR NW,105,Washington Park,K,33.75932,-84.42089,
AGG ASSAULT,191500253,05/30/2019,2770 CRESCENDO DR NW,112,Collier Heights,I,33.77406,-84.47818,
AGG ASSAULT,191491630,05/29/2019,1981 JOSEPH E BOONE BLVD NW,107,Grove Park,J,33.76486,-84.45174,
AGG ASSAULT,191482457,05/29/2019,93 ALLEN TEMPLE CT NW,111,,I,33.75287,-84.49102,
BURGLARY,191490857,05/29/2019,2625 MARTIN L KING JR DR NW,111,Harland Terrace,I,33.75407,-84.47354,
BURGLARY,191490589,05/29/2019,1929 NORTH AVE NW,107,Grove Park,J,33.76871,-84.4506,
BURGLARY,191492043,05/29/2019,1779 MADRONA ST NW,107,Grove Park,J,33.77074,-84.44512,
ROBBERY,191490976,05/29/2019,102 OLLIE ST NW @WASHINGTON PARK,105,Washington Park,K,33.75799,-84.42287,
ROBBERY,191490733,05/29/2019,1058 LENA ST NW,105,Washington Park,K,33.75799,-84.42287,
ROBBERY,191491503,05/29/2019,1739  MARTIN L KING JR DR NW,104,Mozley Park,K,33.75103,-84.44412,
AGG ASSAULT,191490273,05/29/2019,3195 KINGSTON RD NW,112,Collier Heights,I,33.77989,-84.49221,
LARCENY-NON VEHICLE,191490969,05/29/2019,3509 MARTIN L KING JR DR NW,111,Adamsville,H,33.7581,-84.50258,
BURGLARY,191490911,05/29/2019,1690 MARTIN L KING JR DR SW,104,Mozley Park,K,33.75143,-84.44225,
LARCENY-FROM VEHICLE,191491668,05/29/2019,2687 ROSEMARY ST NW,103,Riverside,D,33.81338,-84.47604,
LARCENY-FROM VEHICLE,191490317,05/29/2019,2891 PARROT AVE NW,103,Whittier Mill Village,D,33.80957,-84.4819,
LARCENY-FROM VEHICLE,191492275,05/29/2019,3335 MARTIN L KING JR DR NW,111,Adamsville,H,33.7551,-84.49652,
LARCENY-FROM VEHICLE,191491438,05/29/2019,1361 DONALD LEE HOLLOWEL PKWY NW,106,Hunter Hills,K,33.76008,-84.43698,
LARCENY-NON VEHICLE,191491913,05/29/2019,2 JOSEPH E LOWERY BLVD SW,101,Atlanta University Center,T,33.75462,-84.41744,
AUTO THEFT,191490401,05/29/2019,921 WESTMORELAND CIR NW,110,West Highlands,G,33.79009,-84.44969,
AUTO THEFT,191490559,05/29/2019,796 MAGNA CARTA DR NW,112,Collier Heights,I,33.77635,-84.48285,
LARCENY-NON VEHICLE,191480986,05/28/2019,1033 HOLLYWOOD RD NW,110,Almond Park,G,33.78373,-84.45794,
LARCENY-NON VEHICLE,191481182,05/28/2019,3501 BOLFAIR DR NW,114,Carroll Heights,H,33.77744,-84.50188,
LARCENY-NON VEHICLE,191481067,05/28/2019,1944 SANFORD DR NW,110,West Highlands,G,33.79445,-84.45115,
AUTO THEFT,191481667,05/28/2019,120 ANDERSON AVE NW @ANDERSON PARK,108,Dixie Hills,J,33.75734,-84.45478,
LARCENY-FROM VEHICLE,191480059,05/28/2019,1040 HUFF RD NW,103,Blandtown,D,33.78868,-84.42207,
LARCENY-NON VEHICLE,191482597,05/28/2019,912 MARTIN L KING JR DR SW,101,Atlanta University Center,T,33.75427,-84.41723,
LARCENY-NON VEHICLE,191481416,05/28/2019,835 MARTIN L KING JR DR NW @PUBLIX - MLK,102,Vine City,L,33.75488,-84.41378,
AGG ASSAULT,191480137,05/28/2019,813 MAGNOLIA WAY NW,102,Vine City,L,33.75823,-84.41416,
AGG ASSAULT,191480331,05/28/2019,213 FAIRBURN RD NW,111,Adamsville,H,33.76136,-84.50424,
AGG ASSAULT,191482327,05/28/2019,591 CENTER HILL AVE NW,109,Center Hill,J,33.77147,-84.46411,
AGG ASSAULT,191480994,05/28/2019,35 MILDRED PL NW,109,Grove Park,J,33.77958,-84.45617,
BURGLARY,191481391,05/28/2019,250 JAMES P BRAWLEY DR NW,102,Vine City,L,33.76149,-84.41282,
BURGLARY,191480951,05/28/2019,408 NEW JERSEY AVE NW,108,Grove Park,J,33.76638,-84.4562,
BURGLARY,191481026,05/28/2019,1649 EZRA CHURCH DR NW,105,West Lake,J,33.76126,-84.44116,
BURGLARY,191480706,05/28/2019,1967 EAST AVE NW,110,Grove Park,J,33.78648,-84.45253,
AGG ASSAULT,191471194,05/27/2019,1011 JOSEPH E BOONE BLVD NW,106,Bankhead,K,33.76373,-84.42071,
AGG ASSAULT,191471003,05/27/2019,4 MARTIN L KING JR DR,101,Atlanta University Center,T,33.75348,-84.40323,
BURGLARY,191470369,05/27/2019,15 OLLIE ST NW,105,Washington Park,K,33.75523,-84.42108,
AGG ASSAULT,191470617,05/27/2019,2980 DONALD LEE HOLLOWELL PKWY NW,112,Collier Heights,I,33.78153,-84.48532,
AGG ASSAULT,191470341,05/27/2019,1739 MARTIN L KING DR,104,Mozley Park,K,33.75229,-84.44221,
ROBBERY,191471425,05/27/2019,1135 HARWELL ST NW,105,Washington Park,K,33.75598,-84.42504,
LARCENY-NON VEHICLE,191470639,05/27/2019,1677 DONALD LEE HOLLOWELL PKWY NW,110,Grove Park,J,33.77327,-84.44224,
LARCENY-NON VEHICLE,191470978,05/27/2019,835 MARTIN LUTHER KING JR DR,102,Vine City,L,33.75504,-84.41457,
LARCENY-FROM VEHICLE,191470699,05/27/2019,769 CARON CIR NW,112,Collier Heights,I,33.77604,-84.48618,
LARCENY-FROM VEHICLE,191471358,05/27/2019,2985 OLDKNOW DR NW,112,Collier Heights,I,33.77215,-84.48453,
LARCENY-FROM VEHICLE,191470152,05/27/2019,3379 MARTIN L KING JR DR NW,111,Adamsville,H,33.75499,-84.49826,
LARCENY-FROM VEHICLE,191470331,05/27/2019,491 HOLLY ST NW,107,Grove Park,J,33.76863,-84.4374,
LARCENY-FROM VEHICLE,191471492,05/27/2019,1607 JACKSON TRACE CT NW,113,Lincoln Homes,G,33.79981,-84.4758,
LARCENY-FROM VEHICLE,191471279,05/27/2019,2265 PERRY BLVD NW,110,Scotts Crossing,G,33.80595,-84.46416,
AUTO THEFT,191470629,05/27/2019,388 LEGACY DR SW,104,Harris Chiles,T,33.74526,-84.41915,
AUTO THEFT,191461655,05/26/2019,1281 WESTVIEW DR SW,104,Ashview Heights,T,33.74739,-84.42847,
AUTO THEFT,191461117,05/26/2019,2479 ABNER TER NW @FLIPPER TEMPLE,110,Scotts Crossing,G,33.80106,-84.46803,
LARCENY-NON VEHICLE,191461513,05/26/2019,35 HAMILTON E HOLMES,107,Florida Heights,I,33.75373,-84.46734,
LARCENY-FROM VEHICLE,191460001,05/26/2019,475 ELBRIDGE DR NW,106,Bankhead,K,33.76847,-84.43254,
LARCENY-NON VEHICLE,191461336,05/26/2019,2045 DONALD LEE HOLLOWELL PKWY NW,107,Grove Park,J,33.7774,-84.45214,
LARCENY-FROM VEHICLE,191460684,05/26/2019,1715 HOLLINGSWORTH BLVD NW,110,West Highlands,G,33.78964,-84.44613,
LARCENY-FROM VEHICLE,191460248,05/26/2019,835 MARTIN L KING JR DR NW,102,Vine City,L,33.75504,-84.41457,
LARCENY-FROM VEHICLE,191460526,05/26/2019,1586 ELIXIR AVE SW,104,Mozley Park,K,33.74858,-84.43945,
LARCENY-FROM VEHICLE,191460681,05/26/2019,390 W LAKE AVE NW,107,Grove Park,J,33.7659,-84.44121,
LARCENY-FROM VEHICLE,191461059,05/26/2019,1571 MIMS ST SW,104,Mozley Park,K,33.74985,-84.43893,
AGG ASSAULT,191462105,05/26/2019,494 NORFOLK ST NW,106,Bankhead,K,33.76814,-84.41889,
AGG ASSAULT,191451695,05/25/2019,1280 NASH RD NW,114,English Park,G,33.79044,-84.49295,
BURGLARY,191450418,05/25/2019,1783 JOHNSON RD,110,Rockdale,G,33.7853,-84.44603,
BURGLARY,191442488,05/25/2019,2239 AJAX DR NW,110,Carver Hills,G,33.79953,-84.46092,
BURGLARY,191450335,05/25/2019,2810 REGINA DR NW,109,Center Hill,J,33.7772,-84.47324,
ROBBERY,191450565,05/25/2019,3657 MARTIN L KING JR DR NW,111,Adamsville,H,33.76208,-84.5076,
ROBBERY,191452079,05/25/2019,745 ORR ST NW,102,Vine City,L,33.76263,-84.41187,
ROBBERY,191451466,05/25/2019,1620 HOLLYWOOD RD NW,113,Scotts Crossing,G,33.79939,-84.47179,
LARCENY-FROM VEHICLE,191451954,05/25/2019,2429 BOLTON RD NW,103,Bolton,D,33.82065,-84.45537,
LARCENY-FROM VEHICLE,191450466,05/25/2019,875 MARTIN L KING JR DR NW,102,Vine City,L,33.75497,-84.41604,
LARCENY-FROM VEHICLE,191450840,05/25/2019,186 RACINE ST SW,104,Mozley Park,K,33.75014,-84.44107,
LARCENY-FROM VEHICLE,191451018,05/25/2019,136 BURBANK DR SW,104,Mozley Park,K,33.75107,-84.42877,
LARCENY-FROM VEHICLE,191451912,05/25/2019,955 FOUNDERS DR SW,104,Harris Chiles,T,33.74467,-84.41955,
AUTO THEFT,191451302,05/25/2019,165 SUNSET AVE NW,102,Vine City,L,33.75918,-84.40967,
AUTO THEFT,191442110,05/24/2019,2 JOSEPH E LOWERY BLVD NW,105,Washington Park,K,33.75491,-84.41773,
LARCENY-FROM VEHICLE,191441822,05/24/2019,120 OZONE ST SW,101,Atlanta University Center,T,33.75145,-84.41635,
LARCENY-NON VEHICLE,191441148,05/24/2019,835 MARTIN LUTHER KING JR DR NW,102,Vine City,L,33.75504,-84.41457,
AGG ASSAULT,191440066,05/24/2019,935 PELHAM ST NW,106,Bankhead,K,33.77155,-84.41808,
BURGLARY,191441831,05/24/2019,903 HUFF RD NW,103,Blandtown,D,33.78862,-84.41725,
AGG ASSAULT,191440169,05/24/2019,1218 JOSEPH E BOONE BLVD NW,105,Bankhead,K,33.76361,-84.42783,
BURGLARY,191431068,05/23/2019,2193 ADDISON PL NW,110,Carver Hills,G,33.80052,-84.45936,
BURGLARY,191430712,05/23/2019,940 N EUGENIA PL NW,110,Grove Park,J,33.78087,-84.45265,
BURGLARY,191022451,05/23/2019,1385 ENGLISH ST NW,103,Blandtown,D,33.79334,-84.41982,
BURGLARY,191430804,05/23/2019,599 MITCHELL ST SW,101,Atlanta University Center,T,33.754,-84.40623,
AGG ASSAULT,191431475,05/23/2019,1514 NORTHWEST DR NW,113,Monroe Heights,G,33.79809,-84.48706,
ROBBERY,191430228,05/23/2019,678 COMMERCIAL AVE NW,109,Center Hill,J,33.77334,-84.47151,
ROBBERY,191431184,05/23/2019,38 ANDERSON AVE NW,105,West Lake,J,33.75409,-84.44551,
LARCENY-NON VEHICLE,191432437,05/23/2019,2315 DONALD LEE HOLLOWELL PKWY NW @Z1,109,Center Hill,J,33.77725,-84.46072,
BURGLARY,191430306,05/23/2019,921 WESTMORELAND CIR NW,110,West Highlands,G,33.79009,-84.44969,
LARCENY-FROM VEHICLE,191430409,05/23/2019,660 ELINOR PL NW,110,Grove Park,J,33.77283,-84.43679,
LARCENY-FROM VEHICLE,191430568,05/23/2019,1896 MARKONE ST NW,107,Grove Park,J,33.7696,-84.44912,
LARCENY-FROM VEHICLE,191430786,05/23/2019,2794 MANGO CIR NW,113,Monroe Heights,G,33.79505,-84.47981,
LARCENY-FROM VEHICLE,191430602,05/23/2019,2020 BOLTON RD NW,103,Riverside,D,33.81125,-84.47594,
LARCENY-FROM VEHICLE,191431117,05/23/2019,631 HARWELL RD NW @APS USHER ES,112,Collier Heights,I,33.77247,-84.49395,
LARCENY-NON VEHICLE,191430705,05/23/2019,2748 DONALD LEE HOLLOWELL PKWY NW,112,Collier Heights,I,33.7777,-84.47719,
AUTO THEFT,191430658,05/23/2019,174 CHALMERS DR NW,112,Collier Heights,I,33.76087,-84.47892,
LARCENY-NON VEHICLE,191431840,05/23/2019,161 WALNUT ST SW,101,Atlanta University Center,T,33.75014,-84.40677,
LARCENY-NON VEHICLE,191430990,05/23/2019,2057 VERBENA ST NW,108,Penelope Neighbors,J,33.75443,-84.45368,
AUTO THEFT,191422583,05/22/2019,676 HORTENSE PL NW,110,Grove Park,J,33.77314,-84.44125,
LARCENY-FROM VEHICLE,191421067,05/22/2019,401 HAMILTON E HOLMES DR NW,109,Center Hill,J,33.76633,-84.46976,
LARCENY-FROM VEHICLE,191421340,05/22/2019,213 FAIRBURN RD NW @FAIRBURN GORDON APT,111,Adamsville,H,33.76132,-84.50395,
LARCENY-FROM VEHICLE,191412466,05/22/2019,3024 DONALD LEE HOLLOWELL PKWY,113,Brookview Heights,G,33.78276,-84.48688,
LARCENY-FROM VEHICLE,191422416,05/22/2019,1133 HUFF RD NW,103,Blandtown,D,33.78978,-84.42557,
LARCENY-NON VEHICLE,191421934,05/22/2019,3509 MARTIN L KING JR DR NW,111,Adamsville,H,33.7581,-84.50258,
ROBBERY,191420317,05/22/2019,206 SAINT JOSE ST,104,Ashview Heights,T,33.75006,-84.42224,
ROBBERY,191422054,05/22/2019,286 SEWANEE AVE NW,108,Dixie Hills,J,33.76108,-84.4653,
ROBBERY,191420110,05/22/2019,1739 MARTIN L KING JR DR SW,104,Mozley Park,K,33.75159,-84.44081,
BURGLARY,191421064,05/22/2019,155 GORDON TER SW,104,Mozley Park,K,33.75068,-84.44341,
BURGLARY,191421939,05/22/2019,1705 MARY GEORGE AVE NW,110,Carver Hills,G,33.80208,-84.4651,
AGG ASSAULT,191420430,05/22/2019,1197 JOSEPH E BOONE BLVD NW,106,Bankhead,K,33.7636,-84.42678,
BURGLARY,191412201,05/21/2019,2129 ABNER PL NW,110,Carver Hills,G,33.80061,-84.45781,
AGG ASSAULT,191412255,05/21/2019,1909 NORTH AVE NW,107,Grove Park,J,33.76871,-84.44986,
AGG ASSAULT,191412198,05/21/2019,3114 HICKMAN DR NW,111,,I,33.75423,-84.48889,
LARCENY-FROM VEHICLE,191410955,05/21/2019,1580 JOHNSON RD NW,110,Rockdale,G,33.78576,-84.44322,
LARCENY-FROM VEHICLE,191410967,05/21/2019,1467 EASON ST NW,105,Hunter Hills,K,33.75757,-84.43603,
LARCENY-FROM VEHICLE,191410582,05/21/2019,820 MITCHELL ST SW,101,Atlanta University Center,T,33.75335,-84.41485,
LARCENY-FROM VEHICLE,191410496,05/21/2019,1030 LENA ST NW,105,Washington Park,K,33.7564,-84.42222,
AUTO THEFT,191412354,05/21/2019,1400 DONALD LEE HOLLOWELL PKWY NW,106,Bankhead,K,33.77125,-84.43359,
AUTO THEFT,191411003,05/21/2019,1890 MADRONA ST NW,107,Grove Park,J,33.77084,-84.44878,
AUTO THEFT,191410260,05/21/2019,2479 ABNER TER NW,110,Carver Hills,G,33.80063,-84.46635,
LARCENY-NON VEHICLE,191412371,05/21/2019,2315 DONALD LEE HOLLOWELL PKWY NW @Z1,109,Center Hill,J,33.77725,-84.46072,
LARCENY-NON VEHICLE,191401565,05/20/2019,1863 PENELOPE RD NW,108,Penelope Neighbors,J,33.75408,-84.44813,
LARCENY-FROM VEHICLE,191400452,05/20/2019,2764 PAUL AVE NW,103,Riverside,D,33.81505,-84.46732,
LARCENY-FROM VEHICLE,191400668,05/20/2019,42 STAFFORD ST NW,105,Hunter Hills,K,33.75614,-84.42611,
LARCENY-FROM VEHICLE,191400855,05/20/2019,2351 ADAMS DR NW,103,Bolton,D,33.82005,-84.45433,
LARCENY-FROM VEHICLE,191401455,05/20/2019,809 BECKWITH ST SW,101,Atlanta University Center,T,33.75223,-84.41405,
LARCENY-NON VEHICLE,191401535,05/20/2019,835 MARTIN L KING JR DR NW,102,Vine City,L,33.75504,-84.41457,
LARCENY-NON VEHICLE,191400395,05/20/2019,2991 TRIBBLE LN NW,111,,I,33.75954,-84.48474,
BURGLARY,191401244,05/20/2019,762 CENTER HILL AVE NW,109,Center Hill,J,33.77585,-84.46455,
BURGLARY,191400672,05/20/2019,1620 HOLLYWOOD RD NW,113,Scotts Crossing,G,33.79988,-84.47023,
BURGLARY,191401510,05/20/2019,1911 BAKER RD NW,107,Grove Park,J,33.77131,-84.44952,
BURGLARY,191401264,05/20/2019,436 W LAKE AVE NW,107,Grove Park,J,33.7674,-84.44119,
AGG ASSAULT,191390197,05/19/2019,3221 MARTIN L KING JR DR NW,111,,I,33.75284,-84.49256,
AGG ASSAULT,191391974,05/19/2019,1888 HOLLYWOOD RD NW,103,Riverside,D,33.80734,-84.47293,
AGG ASSAULT,191390729,05/19/2019,1181 JOSEPH E BOONE BLVD NW,106,Bankhead,K,33.7636,-84.42637,
ROBBERY,191391021,05/19/2019,176 WESTLAKE AVE NW,105,West Lake,J,33.75926,-84.44407,
LARCENY-FROM VEHICLE,191390710,05/19/2019,1960 BOLTON RD NW,103,Whittier Mill Village,D,33.80982,-84.47898,
LARCENY-NON VEHICLE,191391034,05/19/2019,1180 FAIR ST SW,104,Ashview Heights,T,33.74885,-84.42627,
LARCENY-NON VEHICLE,191390769,05/19/2019,928 FAIR ST SW @THESSALONIAN BAPTIS,104,Ashview Heights,T,33.74895,-84.4179,
AUTO THEFT,191392099,05/19/2019,432 BECKWITH ST SW,101,Atlanta University Center,T,33.75323,-84.40436,
AUTO THEFT,191390802,05/19/2019,2080 BOLTON RD NW,103,Riverside,D,33.81247,-84.47289,
LARCENY-NON VEHICLE,191381702,05/18/2019,343 ARD PL NW,111,Adamsville,H,33.76481,-84.50184,
LARCENY-NON VEHICLE,191381324,05/18/2019,2265 PERRY BLVD NW,110,Scotts Crossing,G,33.80595,-84.46416,
LARCENY-NON VEHICLE,191380140,05/18/2019,2078 SUMLIN AVE NW,109,Grove Park,J,33.7797,-84.45577,
LARCENY-NON VEHICLE,191381232,05/18/2019,2414 MARIETTA BLVD NW,103,Bolton,D,33.82161,-84.45646,
LARCENY-FROM VEHICLE,191380530,05/18/2019,209 HOLLY RD NW,105,Hunter Hills,K,33.7611,-84.43735,
LARCENY-FROM VEHICLE,191381682,05/18/2019,3590 ADKINS RD NW,114,Fairburn Heights,H,33.77145,-84.50696,
LARCENY-FROM VEHICLE,191381750,05/18/2019,2018 BOLTON RD NW,103,Whittier Mill Village,D,33.81116,-84.47703,
AGG ASSAULT,191382409,05/18/2019,146 VINE ST NW,102,Vine City,L,33.75861,-84.40795,
BURGLARY,191380853,05/18/2019,1885 MARKONE ST NW,107,Grove Park,J,33.77,-84.44878,
BURGLARY,191380614,05/18/2019,1911 BAKER RD NW,107,Grove Park,J,33.77131,-84.44952,
BURGLARY,191381352,05/18/2019,944 MAGNA CARTA DR NW,112,Collier Heights,I,33.77729,-84.47906,
BURGLARY,191381565,05/18/2019,1539 GLENROCK DR NW,113,Lincoln Homes,G,33.7972,-84.47655,
AGG ASSAULT,191381944,05/18/2019,2500 CENTER ST NW,113,Carey Park,G,33.78999,-84.47156,
BURGLARY,191380005,05/18/2019,788 PARSONS ST SW,101,Atlanta University Center,T,33.75072,-84.41333,
BURGLARY,191370622,05/17/2019,2324 MARIETTA RD NW,103,Bolton,D,33.81868,-84.4623,
AGG ASSAULT,191371190,05/17/2019,1197 JOSEPH E BOONE BLVD NW,106,Bankhead,K,33.7636,-84.42678,
LARCENY-FROM VEHICLE,191370734,05/17/2019,1952 GRANDVIEW AVE NW,103,Riverside,D,33.8089,-84.47304,
LARCENY-FROM VEHICLE,191372114,05/17/2019,2770 PEYTON RD NW,103,Riverside,D,33.80661,-84.47899,
LARCENY-FROM VEHICLE,191371780,05/17/2019,1455 ELLSWORTH INDUSTRIAL BLVD NW,103,Blandtown,D,33.79579,-84.42575,
LARCENY-FROM VEHICLE,191371404,05/17/2019,2621 OAKDALE ST NW,103,Riverside,D,33.80892,-84.47361,
LARCENY-FROM VEHICLE,191370254,05/17/2019,899 MARTIN L KING JR DR NW,102,Vine City,L,33.75497,-84.41667,
LARCENY-NON VEHICLE,191372460,05/17/2019,490 CENTER HILL AVE NW,109,Center Hill,J,33.76861,-84.46396,
LARCENY-FROM VEHICLE,191371919,05/17/2019,965 CUNNINGHAM PL SW,104,Harris Chiles,T,33.74333,-84.41968,
LARCENY-FROM VEHICLE,191370632,05/17/2019,2423 MARTIN L KING JR DR NW,108,Florida Heights,I,33.75183,-84.46623,
LARCENY-FROM VEHICLE,191371135,05/17/2019,865 WOOD ST NW,109,Grove Park,J,33.77873,-84.45758,
LARCENY-NON VEHICLE,191371232,05/17/2019,532 JOSEPH E BOONE BLVD NW,102,Vine City,L,33.76334,-84.40537,
LARCENY-NON VEHICLE,191372316,05/17/2019,2193 ABNER PL NW,110,Carver Hills,G,33.80215,-84.45936,
LARCENY-NON VEHICLE,191371347,05/17/2019,26 GERTRUDE PL NW,110,Grant Park,W,33.74517,-84.36801,
AUTO THEFT,191362316,05/16/2019,1092 HUFF RD NW,103,Blandtown,D,33.7891,-84.42417,
AUTO THEFT,191361068,05/16/2019,1050 DONALD LEE HOLLOWELL PKWY NW,106,Bankhead,K,33.77289,-84.42183,
LARCENY-FROM VEHICLE,191360642,05/16/2019,1397 JAMES JACKSON PKWY NW,113,Scotts Crossing,G,33.7965,-84.47467,
LARCENY-FROM VEHICLE,191360055,05/16/2019,1583 FERNO DR NW,113,Lincoln Homes,G,33.79768,-84.47855,
LARCENY-FROM VEHICLE,191360219,05/16/2019,958 FOUNDERS DR SW,104,Harris Chiles,T,33.74441,-84.41989,
LARCENY-FROM VEHICLE,191360353,05/16/2019,2728 BROWNTOWN RD NW,113,Lincoln Homes,G,33.80153,-84.47719,
BURGLARY,191360157,05/16/2019,1192 HUFF RD NW,103,Blandtown,D,33.78868,-84.42704,
AGG ASSAULT,191360901,05/16/2019,1800 PENELOPE RD NW,108,Penelope Neighbors,J,33.75374,-84.44621,
AGG ASSAULT,191362307,05/16/2019,1081 FAIR ST SW,104,Ashview Heights,T,33.74807,-84.42414,
ROBBERY,191362418,05/16/2019,2429 MARTIN L KING JR DR NW,108,Florida Heights,I,33.75246,-84.46669,
ROBBERY,191350970,05/15/2019,960 N GRAND AVE NW,109,Almond Park,G,33.7809,-84.46144,
AGG ASSAULT,191351694,05/15/2019,884 MARGARET PL NW,110,Grove Park,J,33.77897,-84.44994,
AGG ASSAULT,191342363,05/15/2019,1385 SHARON ST NW,105,Hunter Hills,K,33.75486,-84.43287,
LARCENY-NON VEHICLE,191351263,05/15/2019,835 MARTIN L KING JR DR NW,102,Vine City,L,33.75504,-84.41457,
LARCENY-NON VEHICLE,191350985,05/15/2019,835 MARTIN L KING JR DR NW,102,Vine City,L,33.75504,-84.41457,
LARCENY-NON VEHICLE,191350068,05/15/2019,1739 MARTIN L KING JR DR NW,104,Mozley Park,K,33.75144,-84.44382,
LARCENY-FROM VEHICLE,191350002,05/15/2019,1510 ELLSWORTH INDUSTRIAL BLVD NW,103,Blandtown,D,33.79625,-84.42787,
LARCENY-FROM VEHICLE,191350801,05/15/2019,1212 JAMES JACKSON PKWY NW,113,Monroe Heights,G,33.78993,-84.47643,
LARCENY-FROM VEHICLE,191350895,05/15/2019,980 HOLLYWOOD RD NW,109,Grove Park,J,33.78164,-84.45638,
LARCENY-FROM VEHICLE,191350374,05/15/2019,1033 HOLLYWOOD RD NW,110,Almond Park,G,33.78308,-84.45882,
LARCENY-FROM VEHICLE,191350375,05/15/2019,700 MARTIN L KING JR DR SW,101,Atlanta University Center,T,33.75459,-84.41062,
LARCENY-NON VEHICLE,191351905,05/15/2019,3804 MARTIN L KING JR DR SW,114,Old Gordon,H,33.76797,-84.51322,
AUTO THEFT,191351197,05/15/2019,1624 DONALD LEE HOLLOWELL PKWY NW,107,Grove Park,J,33.77205,-84.44128,
AUTO THEFT,191351062,05/15/2019,816 MAGNOLIA WAY NW,102,Vine City,L,33.75805,-84.41421,
AUTO THEFT,191101965,05/15/2019,2025 CLAUDE ST NW,103,Carey Park,G,33.79298,-84.46938,
LARCENY-NON VEHICLE,191340117,05/14/2019,167 SCOTT ST NW,105,Hunter Hills,K,33.75966,-84.43221,
LARCENY-NON VEHICLE,191340538,05/14/2019,43 ALLEN TEMPLE CT NW,111,,I,33.75392,-84.49081,
LARCENY-FROM VEHICLE,191342229,05/14/2019,2331 BOLTON RD NW,103,Bolton,D,33.81909,-84.46179,
LARCENY-FROM VEHICLE,191341608,05/14/2019,1449 MOZLEY PL SW,104,Mozley Park,K,33.75138,-84.43487,
LARCENY-FROM VEHICLE,191340107,05/14/2019,1176 CHATTAHOOCHEE AVE NW,103,Blandtown,D,33.80058,-84.42561,
LARCENY-FROM VEHICLE,191340494,05/14/2019,903 HUFF RD NW,103,Blandtown,D,33.78862,-84.41725,
LARCENY-NON VEHICLE,191341723,05/14/2019,3509 MARTIN L KING JR DR NW,111,Adamsville,H,33.7581,-84.50258,
ROBBERY,191341544,05/14/2019,1315 NORTH AVE NW,106,Bankhead,K,33.76821,-84.43084,
HOMICIDE,191330374,05/13/2019,3657 MARTIN L KING JR DR NW,111,Adamsville,H,33.76208,-84.5076,
ROBBERY,191332033,05/13/2019,22 JOSEPH E LOWERY BLVD NW,102,Washington Park,K,33.75526,-84.41765,
ROBBERY,191331914,05/13/2019,835 MARTIN L KING JR DR NW,102,Vine City,L,33.75504,-84.41457,
AGG ASSAULT,191330042,05/13/2019,1617 JOSEPH E BOONE BLVD NW,107,Grove Park,J,33.76385,-84.44072,
AGG ASSAULT,191331832,05/13/2019,2479 ABNER TER NW,110,Carver Hills,G,33.80063,-84.46635,
AGG ASSAULT,191332219,05/13/2019,259 ROSSER ST SW,104,Ashview Heights,T,33.74791,-84.42457,
LARCENY-NON VEHICLE,191330850,05/13/2019,568 CHAPPELL RD NW,107,Grove Park,J,33.77075,-84.43407,
LARCENY-FROM VEHICLE,191330988,05/13/2019,2424 ARNO DR NW,110,Carver Hills,G,33.7991,-84.46765,
LARCENY-FROM VEHICLE,191330124,05/13/2019,290 SCIPLE TER NW,102,Vine City,L,33.76259,-84.41534,
LARCENY-FROM VEHICLE,191330893,05/13/2019,2265 PERRY BLVD NW,110,Scotts Crossing,G,33.80595,-84.46416,
LARCENY-FROM VEHICLE,191330330,05/13/2019,2812 BROWNTOWN RD NW,113,Lincoln Homes,G,33.80164,-84.48049,
LARCENY-FROM VEHICLE,191330336,05/13/2019,2265 PERRY BLVD NW,110,Scotts Crossing,G,33.80595,-84.46416,
LARCENY-FROM VEHICLE,191330291,05/13/2019,1504 MARY GEORGE AVE NW,110,Carver Hills,G,33.80197,-84.45862,
LARCENY-NON VEHICLE,191330826,05/13/2019,945 DESOTO ST NW,105,Washington Park,K,33.75754,-84.41898,
LARCENY-NON VEHICLE,191330596,05/13/2019,1670 MCCALLIE BLVD NW,110,Carver Hills,G,33.79972,-84.45599,
LARCENY-NON VEHICLE,191330779,05/13/2019,1879 MARKONE ST NW,107,Grove Park,J,33.77001,-84.44846,
AUTO THEFT,191332230,05/13/2019,1218 JOSEPH E BOONE BLVD NW,105,Hunter Hills,K,33.76324,-84.42748,
LARCENY-NON VEHICLE,191320446,05/12/2019,1720 MARTIN L KING JR DR SW,104,Mozley Park,K,33.75083,-84.44341,
LARCENY-FROM VEHICLE,191320009,05/12/2019,1709 WILLMA DR NW,110,West Highlands,G,33.79179,-84.44728,
LARCENY-FROM VEHICLE,191321122,05/12/2019,1082 HUFF RD NW,103,Blandtown,D,33.78904,-84.42284,
LARCENY-FROM VEHICLE,191321059,05/12/2019,105 OZONE ST SW,101,Atlanta University Center,T,33.75179,-84.41675,
LARCENY-NON VEHICLE,191321144,05/12/2019,835 MARTIN L KING JR DR NW,102,Vine City,L,33.75504,-84.41457,
LARCENY-FROM VEHICLE,191320584,05/12/2019,1040 HUFF RD NW,103,Blandtown,D,33.78868,-84.42207,
LARCENY-FROM VEHICLE,191320669,05/12/2019,1705 MARY GEORGE AVE NW,110,Carver Hills,G,33.80208,-84.4651,
AGG ASSAULT,191321831,05/12/2019,3680 CROSBY DR NW,114,Fairburn Heights,H,33.76672,-84.50148,
ROBBERY,191320549,05/12/2019,797 HARWELL RD NW,112,Collier Heights,I,33.7798,-84.49507,
ROBBERY,191320468,05/12/2019,1284 JOSEPH E BOONE BLVD NW,106,Hunter Hills,K,33.76329,-84.42965,
ROBBERY,191320488,05/12/2019,3083 MARTIN L KING JR DR NW,111,,I,33.75107,-84.48903,
BURGLARY,191320430,05/12/2019,605 RHODES ST NW,102,Vine City,L,33.7571,-84.40731,
BURGLARY,191320592,05/12/2019,1172 FIELD RD NW,113,Brookview Heights,G,33.78768,-84.48428,
BURGLARY,191310482,05/11/2019,2386 BOLTON RD NW,103,Bolton,D,33.8209,-84.45951,
BURGLARY,191310559,05/11/2019,987 LENA ST NW,105,Washington Park,K,33.75682,-84.41995,
BURGLARY,191310923,05/11/2019,622 BLANCHE ST NW,107,Grove Park,J,33.77189,-84.44475,
BURGLARY,191311812,05/11/2019,1775 GIVENS AVE NW,110,Scotts Crossing,G,33.8041,-84.46646,
AGG ASSAULT,191310818,05/11/2019,973 DESOTO ST NW,105,Washington Park,K,33.75755,-84.41956,
AGG ASSAULT,191311937,05/11/2019,3657 MARTIN L KING JR DR NW,111,Adamsville,H,33.76208,-84.5076,
AGG ASSAULT,191310337,05/11/2019,271 ANDREW J HAIRSTON PL NW,102,Vine City,L,33.76209,-84.4137,
ROBBERY,191310364,05/11/2019,306 BURBANK DR NW,105,Hunter Hills,K,33.76312,-84.42943,
LARCENY-FROM VEHICLE,191311881,05/11/2019,2429 BOLTON RD NW,103,Bolton,D,33.82065,-84.45537,
LARCENY-FROM VEHICLE,191310877,05/11/2019,1122 OLD CHATTAHOOCHEE AVE NW,103,Blandtown,D,33.79995,-84.42484,
LARCENY-FROM VEHICLE,191310763,05/11/2019,864 CAPITOL VIEW AVE NW,109,Center Hill,J,33.77845,-84.46728,
LARCENY-NON VEHICLE,191311508,05/11/2019,835 MARTIN L KING JR DR NW,102,Vine City,L,33.75504,-84.41457,
LARCENY-FROM VEHICLE,191311473,05/11/2019,1600 ELLSWORTH INDUSTRIAL BLVD NW,103,Blandtown,D,33.79826,-84.42811,
LARCENY-NON VEHICLE,191311893,05/11/2019,1176 CHATTAHOOCHEE AVE NW,103,Blandtown,D,33.80058,-84.42561,
LARCENY-NON VEHICLE,191302481,05/11/2019,221 CHAPPEL RD NW,105,Hunter Hills,K,33.76114,-84.43324,
AUTO THEFT,191310473,05/11/2019,1050 DONALD LEE HOLLOWELL PKWY NW,106,Bankhead,K,33.77289,-84.42183,
AUTO THEFT,191301077,05/10/2019,I-20 WB EXPY SW / JOSEPH E LOWERY BLVD SW,101,Harris Chiles,T,33.74159,-84.41764,
AUTO THEFT,191300997,05/10/2019,2094 TIGER FLOWERS DR NW,108,Dixie Hills,J,33.75997,-84.45585,
LARCENY-NON VEHICLE,191301232,05/10/2019,287 ABBEY ST NW,108,Penelope Neighbors,J,33.75448,-84.45056,
LARCENY-FROM VEHICLE,191301090,05/10/2019,1300 JOSEPH E BOONE BLVD NW,105,Hunter Hills,K,33.76204,-84.43066,
LARCENY-NON VEHICLE,191301339,05/10/2019,1176 CHATTAHOCEE AVE,103,Blandtown,D,33.80058,-84.42561,
LARCENY-FROM VEHICLE,191301643,05/10/2019,890 CHATTAHOOCHEE,103,Berkeley Park,D,33.79902,-84.41695,
LARCENY-FROM VEHICLE,191301687,05/10/2019,1310 ELLSWORTH INDUSTRIAL,103,Blandtown,D,33.7889,-84.42636,
LARCENY-NON VEHICLE,191301662,05/10/2019,2615 DONALD LEE HOLLOWELL PKWY NW,109,Center Hill,J,33.7762,-84.47236,
AGG ASSAULT,191302229,05/10/2019,292 JAMES P BRAWLEY DR NW,102,Vine City,L,33.76258,-84.41301,
BURGLARY,191301881,05/10/2019,556 CAIRO ST NW,106,Bankhead,K,33.76993,-84.41979,
BURGLARY,191302346,05/10/2019,1430 SHARON ST NW,105,Hunter Hills,K,33.75475,-84.43433,
BURGLARY,191291682,05/09/2019,2423 MARTIN L KING JR DR NW,108,Florida Heights,I,33.75183,-84.46623,
BURGLARY,191292298,05/09/2019,38 ANDERSON AVE NW,105,West Lake,J,33.75409,-84.44551,
LARCENY-NON VEHICLE,191291762,05/09/2019,3509 MARTIN L KING JR DR NW,111,Adamsville,H,33.7581,-84.50258,
LARCENY-FROM VEHICLE,191291420,05/09/2019,205 HEMPHILL SCHOOL RD NW,111,Oakcliff,H,33.76122,-84.50044,
LARCENY-FROM VEHICLE,191290751,05/09/2019,2011 BOLTON RD NW @PERRY HOME BRANCH,103,Riverside,D,33.8104,-84.47705,
LARCENY-NON VEHICLE,191291162,05/09/2019,2351 PERRY BLVD NW,110,Scotts Crossing,G,33.80549,-84.46592,
AUTO THEFT,191291209,05/09/2019,3565 MARTIN L KING JR DR NW @COLLIER HEIGHTS SC,111,Adamsville,H,33.7601,-84.50466,
AUTO THEFT,191290848,05/09/2019,1904 LUCY COMPTON LN NW,110,West Highlands,G,33.79497,-84.45321,
LARCENY-NON VEHICLE,191282275,05/08/2019,3567 MARTIN L KING JR DR NW,111,Adamsville,H,33.75973,-84.50483,
LARCENY-NON VEHICLE,191280818,05/08/2019,1977 MARTIN L KING JR DR NW,108,,I,33.75065,-84.44767,
BURGLARY,191281317,05/08/2019,2167 MARTIN L KING JR DR NW,108,Florida Heights,I,33.75167,-84.46093,
BURGLARY,191280883,05/08/2019,3680 ADKINS RD NW,114,Carroll Heights,H,33.77252,-84.50942,
ROBBERY,191281997,05/08/2019,2132 DONALD LEE HOLLOWELL PKWY NW,107,Grove Park,J,33.77637,-84.4551,
AGG ASSAULT,191281844,05/08/2019,3335 MARTIN LUTHER KING JR DRIVE,111,Adamsville,H,33.75403,-84.49657,
AGG ASSAULT,191270873,05/07/2019,2046 JOSEPH E BOONE BLVD NW,108,Dixie Hills,J,33.76353,-84.45447,
AGG ASSAULT,191271703,05/07/2019,195 FAIRBURN RD,111,Adamsville,H,33.76469,-84.50394,
BURGLARY,191272042,05/07/2019,1376 AKRIDGE ST NW,105,Hunter Hills,K,33.75804,-84.43294,
BURGLARY,191270943,05/07/2019,262 JAMES P BRAWLEY DR NW,102,Vine City,L,33.76178,-84.4129,
BURGLARY,191270793,05/07/2019,192 HOLDERNESS ST SW,104,Ashview Heights,T,33.74951,-84.42623,
LARCENY-FROM VEHICLE,191262180,05/07/2019,380 LEGACY DR,104,Harris Chiles,T,33.74476,-84.41893,
LARCENY-NON VEHICLE,191271462,05/07/2019,1776 WESTMORELAND LN NW,110,West Highlands,G,33.79034,-84.44971,
AUTO THEFT,191271807,05/07/2019,866 CAPITOL VIEW AVE NW,109,Center Hill,J,33.77864,-84.46703,
AUTO THEFT,191262248,05/06/2019,2034 BOLTON RD NW,103,Riverside,D,33.81158,-84.4746,
AUTO THEFT,191260715,05/06/2019,2423 MARTIN L KING JR DR NW,108,Florida Heights,I,33.75183,-84.46623,
AUTO THEFT,191260744,05/06/2019,114 VICTOR CIR NW,105,West Lake,J,33.75778,-84.43881,
AUTO THEFT,191260779,05/06/2019,1176 CHATTAHOOCHEE AVE NW,103,Blandtown,D,33.80058,-84.42561,
LARCENY-NON VEHICLE,191260176,05/06/2019,954 JOSEPH E BOONE BLVD NW,106,Washington Park,K,33.76323,-84.41879,
LARCENY-FROM VEHICLE,191261131,05/06/2019,1598 DONALD LEE HOLLOWELL PKWY NW,107,Grove Park,J,33.77167,-84.4406,
LARCENY-NON VEHICLE,191260815,05/06/2019,203 HARWELL PL NW,112,Collier Heights,I,33.7809,-84.49374,
LARCENY-NON VEHICLE,191261613,05/06/2019,2429 MARTIN L KING JR DR NW,108,Florida Heights,I,33.75246,-84.46669,
LARCENY-FROM VEHICLE,191261912,05/06/2019,1900 PERRY BLVD NW,110,West Highlands,G,33.79513,-84.4504,
LARCENY-FROM VEHICLE,191260851,05/06/2019,3599 MARTIN L KING JR DR NW,111,Adamsville,H,33.75933,-84.50433,
LARCENY-FROM VEHICLE,191260367,05/06/2019,209 HOLLY RD NW,105,Hunter Hills,K,33.7611,-84.43735,
LARCENY-FROM VEHICLE,191260391,05/06/2019,729 FLORENCE PL NW,110,Grove Park,J,33.77485,-84.44171,
LARCENY-FROM VEHICLE,191261580,05/06/2019,1471 AKRIDGE ST NW,105,Hunter Hills,K,33.75855,-84.43615,
BURGLARY,191260563,05/06/2019,2423 MARTIN L KING JR DR NW,108,Florida Heights,I,33.75183,-84.46623,
AGG ASSAULT,191261277,05/06/2019,3349 MARTIN L KING JR DR NW,111,Adamsville,H,33.75474,-84.49736,
AGG ASSAULT,191261378,05/06/2019,3140 MIDDLETON RD NW,111,,I,33.75197,-84.49079,
AGG ASSAULT,191261624,05/06/2019,480 FAIRBURN RD NW,114,Fairburn Heights,H,33.76802,-84.50034,
ROBBERY,191261883,05/06/2019,745 AYRSHIRE CIR NW,109,Center Hill,J,33.77211,-84.45831,
ROBBERY,191261204,05/06/2019,184 JAMES P BRAWLEY DR NW,102,Vine City,L,33.7597,-84.41276,
ROBBERY,191250179,05/05/2019,3092 DELMAR LN NW,111,,I,33.75546,-84.48849,
ROBBERY,191251796,05/05/2019,570 ATLANTA STUDENT MOVEMENT BLVD SW,101,Atlanta University Center,T,33.74907,-84.41752,
AGG ASSAULT,191251863,05/05/2019,195 FAIRBURN RD NW,111,Adamsville,H,33.76126,-84.50433,
AGG ASSAULT,191251484,05/05/2019,1157 SELLS AVE SW,104,West End,T,33.74572,-84.42569,
BURGLARY,191251558,05/05/2019,163 HOLDERNESS ST SW,104,Ashview Heights,T,33.75017,-84.42663,
LARCENY-FROM VEHICLE,191250778,05/05/2019,115 HOLLY RD NW,105,Hunter Hills,K,33.75818,-84.43742,
LARCENY-FROM VEHICLE,191250575,05/05/2019,333 ARGUS CIR NW,111,Adamsville,H,33.76445,-84.50429,
LARCENY-NON VEHICLE,191251196,05/05/2019,1946 BAKER RD NW,107,Grove Park,J,33.7705,-84.45056,
AUTO THEFT,191250525,05/05/2019,399 HOLLY ST,105,Grove Park,J,33.76566,-84.43756,
AUTO THEFT,191240768,05/04/2019,2423 MARTIN L KING JR DR NW,108,Florida Heights,I,33.75183,-84.46623,
LARCENY-FROM VEHICLE,191240127,05/04/2019,81 GASLIGHT LN NW,108,Dixie Hills,J,33.75623,-84.46593,
LARCENY-NON VEHICLE,191241355,05/04/2019,835 MARTIN LUTHER KING JR DR NW,102,Vine City,L,33.75504,-84.41457,
LARCENY-FROM VEHICLE,191240941,05/04/2019,847 PARSONS ST SW,101,Atlanta University Center,T,33.75092,-84.41535,
LARCENY-FROM VEHICLE,191240713,05/04/2019,98 ANDERSON AVE NW @ANDERSON PARK,108,Dixie Hills,J,33.75633,-84.45114,
LARCENY-FROM VEHICLE,191240993,05/04/2019,1701 WILLMA DR NW,110,West Highlands,G,33.79118,-84.44722,
ROBBERY,191240410,05/04/2019,948 WESTMOOR DR NW,105,Washington Park,K,33.75948,-84.4188,
ROBBERY,191241192,05/04/2019,2115 ARLINGTON CIR,107,Grove Park,J,33.77021,-84.4565,
ROBBERY,191240058,05/04/2019,60 PASCHAL BLVD NW,102,Vine City,L,33.75783,-84.41419,
ROBBERY,191240918,05/04/2019,2605 WOODROW ST NW,109,Center Hill,J,33.77409,-84.47203,
ROBBERY,191230296,05/03/2019,2582 SAINT JAMES AVE NW,113,Carey Park,G,33.78585,-84.47273,
ROBBERY,191232097,05/03/2019,807 MAGNOLIA WAY NW,102,Vine City,L,33.75823,-84.41408,
ROBBERY,191232387,05/03/2019,999 LENA ST NW,105,Washington Park,K,33.75686,-84.42046,
AGG ASSAULT,191222575,05/03/2019,1388 JOSEPH E BOONE BLVD NW,105,Hunter Hills,K,33.7633,-84.43337,
AGG ASSAULT,191230363,05/03/2019,789 THURMOND ST NW,102,Vine City,L,33.76061,-84.41332,
AGG ASSAULT,191230085,05/03/2019,901 BOLTON RD NW,114,Bankhead/Bolton,H,33.77948,-84.49901,
AGG ASSAULT,191232210,05/03/2019,1300 JOSEPH E BOONE BLVD NW,105,Hunter Hills,K,33.76344,-84.43048,
LARCENY-NON VEHICLE,191232607,05/03/2019,992 FAIRBURN RD NW,114,Carroll Heights,H,33.77932,-84.5049,
LARCENY-NON VEHICLE,191232047,05/03/2019,476 W LAKE AVE NW,107,Grove Park,J,33.7685,-84.4414,
LARCENY-FROM VEHICLE,191231828,05/03/2019,1444 FAIRMONT AVE NW,103,Blandtown,D,33.79349,-84.42228,
LARCENY-FROM VEHICLE,191231469,05/03/2019,1045 W MARIETTA ST NW,106,Knight Park/Howell Station,K,33.78537,-84.42103,
LARCENY-FROM VEHICLE,191230608,05/03/2019,260 WESTVIEW PL SW,104,Mozley Park,K,33.74795,-84.43438,
LARCENY-NON VEHICLE,191231179,05/03/2019,3657 MARTIN L KING JR DR NW,111,Adamsville,H,33.76208,-84.5076,
LARCENY-NON VEHICLE,191231603,05/03/2019,1976 LOIS PL NW,110,Grove Park,J,33.78425,-84.45237,
LARCENY-NON VEHICLE,191231468,05/03/2019,104 DAHLIA AVE NW,108,Dixie Hills,J,33.75576,-84.46246,
LARCENY-FROM VEHICLE,191220442,05/02/2019,1891 JOHNSON RD NW @APS BOYD ES,110,Rockdale,G,33.78579,-84.44924,
LARCENY-FROM VEHICLE,191220358,05/02/2019,2068 VERBENA ST NW,108,Penelope Neighbors,J,33.75409,-84.45437,
LARCENY-FROM VEHICLE,191220191,05/02/2019,2210 MARIETTA BLVD NW,103,Bolton,D,33.81504,-84.44398,
LARCENY-FROM VEHICLE,191220495,05/02/2019,125 SEWANEE AVE NW,108,Dixie Hills,J,33.75705,-84.46482,
LARCENY-FROM VEHICLE,191221307,05/02/2019,194 WEBSTER ST SW,101,Atlanta University Center,T,33.75059,-84.41539,
BURGLARY,191221968,05/02/2019,2231 PENELOPE ST NW,108,Dixie Hills,J,33.75635,-84.45691,
HOMICIDE,191222132,05/02/2019,2591 ETHERIDGE DR NW,113,Carey Park,G,33.7881,-84.47292,
ROBBERY,191222145,05/02/2019,2650 DONALD LEE HOLLOWELL PKWY NW,109,Center Hill,J,33.77582,-84.47342,
ROBBERY,191220540,05/02/2019,2930 ELEANOR TER NW,112,Collier Heights,I,33.77871,-84.48365,
ROBBERY,191210164,05/01/2019,1992 DONALD LEE HOLLOWELL PKWY NW,107,Grove Park,J,33.77641,-84.45005,
AGG ASSAULT,191212336,05/01/2019,912 MARTIN L KING JR DR NW,102,Atlanta University Center,L,33.75472,-84.41755,
AGG ASSAULT,191211354,05/01/2019,973 DESOTO ST NW,105,Washington Park,K,33.75755,-84.41956,
BURGLARY,191211140,05/01/2019,2770 DONALD LEE HOLLOWELL PKWY NW,112,Collier Heights,I,33.77845,-84.47857,
BURGLARY,191210937,05/01/2019,1033 HOLLYWOOD RD NW,110,Almond Park,G,33.78308,-84.45882,
LARCENY-FROM VEHICLE,191210955,05/01/2019,2429 BOLTON RD NW,103,Bolton,D,33.82065,-84.45537,
LARCENY-FROM VEHICLE,191210403,05/01/2019,250 CHILDS DR NW,105,Hunter Hills,K,33.76205,-84.43677,
LARCENY-NON VEHICLE,191210907,05/01/2019,2615 DONALD LEE HOLLOWELL PKWY NW,109,Center Hill,J,33.7762,-84.47236,
LARCENY-NON VEHICLE,191211111,05/01/2019,2001 JAMES JACKSON PKWY NW,103,Riverside,D,33.81063,-84.47569,
LARCENY-NON VEHICLE,191210497,05/01/2019,1815 MARTIN L KING JR DR NW,108,,I,33.75092,-84.44661,
LARCENY-NON VEHICLE,191210486,05/01/2019,339 HOLLY ST NW,107,Grove Park,J,33.7646,-84.43757,