UC2_Literal,Report Number,Report Date,Location,Beat,Neigborhood,NPU,Lat,Long,
AGG ASSAULT,191502595,05/31/2019,3810 CAMBELTON RD,413,,P,33.69028,-84.51343,
BURGLARY,191510872,05/31/2019,1228 KENILWORH DR SW,403,Venetian Hills,S,33.72161,-84.4339,
BURGLARY,191510975,05/31/2019,1525 VENETIAN DR SW,403,Venetian Hills,S,33.7148,-84.43849,
BURGLARY,191510693,05/31/2019,2247 CASCADE RD SW,406,Cascade Avenue/Road,S,33.72272,-84.46205,
BURGLARY,191510721,05/31/2019,2640 MARTIN L KING JR DR SW,405,Harland Terrace,I,33.75381,-84.47425,
BURGLARY,191511286,05/31/2019,3761 CAMPBELLTON RD SW,412,Kings Forest,P,33.69087,-84.51166,
LARCENY-NON VEHICLE,191511194,05/31/2019,2178 CAMPBELLTON RD SW,410,Campbellton Road,R,33.70514,-84.45947,
LARCENY-FROM VEHICLE,191511184,05/31/2019,3030 HEADLAND DR SW,411,Greenbriar,R,33.68841,-84.48742,
LARCENY-FROM VEHICLE,191511304,05/31/2019,2841 GREENBRIAR PKWY SW @GREENBRIAR MALL,411,Greenbriar,R,33.68845,-84.49328,
LARCENY-FROM VEHICLE,191512050,05/31/2019,3620 GINNIS CT SW,407,Fairburn Mays,H,33.73141,-84.51195,
LARCENY-NON VEHICLE,191510777,05/31/2019,835 OGLETHORPE AVE SW,401,West End,T,33.73592,-84.41564,
LARCENY-NON VEHICLE,191510711,05/31/2019,1740 S GORDON ST SW,404,Westview,T,33.73955,-84.44484,
AUTO THEFT,191511088,05/31/2019,3024 MARTIN LUTHER KING JR DR SW,405,Harland Terrace,I,33.7527,-84.48607,
AUTO THEFT,191510753,05/31/2019,1994 BENT CREEK WAY SW,410,Campbellton Road,R,33.7011,-84.46631,
LARCENY-NON VEHICLE,191500031,05/30/2019,CRESTWELL CIR SW / LOFTY LN SW,407,Thomasville Heights,Z,33.70764,-84.36005,
LARCENY-FROM VEHICLE,191501381,05/30/2019,1654 S ALVARADO TER SW @APS TUSKEGEE,404,Cascade Avenue/Road,S,33.73111,-84.44125,
LARCENY-NON VEHICLE,191511010,05/30/2019,1090 WHITE OAK AVE SW,402,West End,T,33.73321,-84.42428,
LARCENY-NON VEHICLE,191500849,05/30/2019,3050 MARTIN LUTHER KING JR DRIVE SW,405,Harland Terrace,I,33.75177,-84.4857,
LARCENY-NON VEHICLE,191501399,05/30/2019,1796 DELOWE DR SW,410,Campbellton Road,R,33.70583,-84.45716,
BURGLARY,191500021,05/30/2019,717 LEE ST SW,401,West End,T,33.73516,-84.41421,
AGG ASSAULT,191501729,05/30/2019,1994 BENT CREEK WAY SW,410,Campbellton Road,R,33.7011,-84.46631,
AGG ASSAULT,191502217,05/30/2019,493 WILLARD AVE SW,404,Westview,T,33.7416,-84.43692,
ROBBERY,191502088,05/30/2019,1994 BENT CREEK WAY SW,410,Campbellton Road,R,33.7011,-84.46631,
ROBBERY,191502141,05/30/2019,687 CASCADE AVE SW,403,Westview,T,33.73682,-84.43647,
AGG ASSAULT,191482656,05/29/2019,2909 CAMPBELLTON RD SW @CASCADE PINES APTS,409,Southwest,R,33.69872,-84.48418,
BURGLARY,191491009,05/29/2019,1676 ROGERS AVE SW,404,Westview,T,33.73709,-84.44251,
BURGLARY,191491330,05/29/2019,4741 EDWINA LN SW,412,Greenbriar Village,P,33.70379,-84.54199,
BURGLARY,191491651,05/29/2019,1771 FORT VALLEY DR SW,410,Pomona Park,R,33.70665,-84.4508,
BURGLARY,191491928,05/29/2019,836 WESTMONT RD SW,402,Oakland City,S,33.73243,-84.43715,
BURGLARY,191491457,05/29/2019,2280 CAMPBELLTON RD SW,410,Campbellton Road,R,33.70473,-84.4623,
BURGLARY,191492006,05/29/2019,3200 SPREADING OAK DR SW,406,East Ardley Road,I,33.73063,-84.49267,
LARCENY-FROM VEHICLE,191492137,05/29/2019,3755 CARMIA DR SW,414,Princeton Lakes,P,33.65571,-84.50908,
AUTO THEFT,191491899,05/29/2019,2295 BEN HILL RD SW,411,Greenbriar,R,33.69212,-84.48535,
AUTO THEFT,191491770,05/29/2019,I-20 WB EXPY SW/MARTIN LUTHER KING JR DR SW,407,Fairburn Mays,H,33.7451,-84.50858,
AUTO THEFT,191491488,05/29/2019,722 CASCADE AVE SW,402,West End,T,33.73561,-84.4361,
AUTO THEFT,191480515,05/28/2019,3870 REDWINE RD SW,414,Princeton Lakes,P,33.65991,-84.51074,
AUTO THEFT,191480865,05/28/2019,1881 MYRTLE DR SW,410,Campbellton Road,R,33.70355,-84.45576,
LARCENY-FROM VEHICLE,191481277,05/28/2019,3061 MCMURRAY DR SW,409,Southwest,R,33.70307,-84.48803,
LARCENY-FROM VEHICLE,191482045,05/28/2019,263 BARFIELD AVE SW,405,Florida Heights,I,33.74863,-84.46202,
LARCENY-FROM VEHICLE,191481188,05/28/2019,3216 MAYO PL SW,409,Southwest,R,33.69633,-84.494,
LARCENY-NON VEHICLE,191480915,05/28/2019,1225 GRAYMONT DR SW,403,Venetian Hills,S,33.72175,-84.43673,
LARCENY-NON VEHICLE,191481470,05/28/2019,807 CASCADE AVE SW,404,Cascade Avenue/Road,S,33.73323,-84.43795,
LARCENY-NON VEHICLE,191480047,05/28/2019,1294 DONNELLY AVE SW,402,West End,T,33.73453,-84.43003,
LARCENY-FROM VEHICLE,191480173,05/28/2019,929 LEE ST SW,401,West End,T,33.72913,-84.41744,
AGG ASSAULT,191482500,05/28/2019,207 BARFIELD AVE SW,405,Florida Heights,I,33.75013,-84.46201,
ROBBERY,191480932,05/28/2019,3540 N CAMP CREEK PKWY SW,414,,P,33.67051,-84.50299,
ROBBERY,191482531,05/28/2019,2973 CAMBRIDGE DR SW,414,Brentwood,P,33.67488,-84.50689,
AGG ASSAULT,191470863,05/27/2019,3206 MARTIN L KING JR DR SW,406,,I,33.75183,-84.4921,
AGG ASSAULT,191471865,05/27/2019,4749 EDWINA LN SW,412,Greenbriar Village,P,33.704,-84.54201,
LARCENY-FROM VEHICLE,191470844,05/27/2019,3220 VERDANT DR SW,411,Greenbriar,R,33.68472,-84.49582,
LARCENY-FROM VEHICLE,191470056,05/27/2019,3033 CONTINENTAL COLONY PKWY SW,411,Greenbriar,R,33.6827,-84.49488,
AUTO THEFT,191470681,05/27/2019,3695 LARGO LANE SW,414,Tampa Park,P,33.67989,-84.50955,
AUTO THEFT,191470676,05/27/2019,1007 LOMA LINDA ST SW,402,Bush Mountain,S,33.72758,-84.43273,
LARCENY-FROM VEHICLE,191470980,05/27/2019,3128 GARDEN WALK SW,414,Princeton Lakes,P,33.66433,-84.51385,
AUTO THEFT,191461801,05/26/2019,4030 DOSTER ST SW,407,Wilson Mill Meadows,H,33.75304,-84.51952,
AGG ASSAULT,191462039,05/26/2019,3909 CAMPBELLTON RD SW,412,Kings Forest,P,33.6916,-84.51438,
AGG ASSAULT,191461212,05/26/2019,3144 MARTIN L KING JR DR SW,405,,I,33.75107,-84.48903,
AGG ASSAULT,191461195,05/26/2019,1935 ALISON CT SW @FRANCISCAN CLUB APT,410,Fort Valley,R,33.70045,-84.45071,
BURGLARY,191460501,05/26/2019,1137 ARLINGTON AVE SW,402,Oakland City,S,33.72482,-84.42508,
LARCENY-NON VEHICLE,191461259,05/26/2019,3391 FAIRBURN RD SW,414,Ben Hill,P,33.66436,-84.52326,
BURGLARY,191461390,05/26/2019,907 LAWTON ST SW,402,Oakland City,S,33.73029,-84.42359,
BURGLARY,191461488,05/26/2019,131 NATHAN RD SW,407,Adamsville,H,33.75321,-84.5022,
AUTO THEFT,191461888,05/26/2019,687 CASCADE AVE SW,404,Westview,T,33.73682,-84.43647,
AUTO THEFT,191451136,05/25/2019,1991 DELOWE DR SW,410,Campbellton Road,R,33.70103,-84.45746,
AGG ASSAULT,191450327,05/25/2019,CASCADE AVE SW / HERRING RD SW,403,Cascade Avenue/Road,S,33.72251,-84.46302,
ROBBERY,191450816,05/25/2019,2997 CAMPBELLTON RD SW,409,Southwest,R,33.69655,-84.48597,
AUTO THEFT,191451186,05/25/2019,1636 S OLYMPIAN WAY SW,404,Westview,T,33.73576,-84.44121,
AUTO THEFT,191450923,05/25/2019,2726 DEERWOOD LN SW,414,Ben Hill,P,33.67269,-84.51521,
AUTO THEFT,191451242,05/25/2019,1993 BENT CREEK WAY SW,410,Campbellton Road,R,33.70084,-84.46568,
LARCENY-NON VEHICLE,191452048,05/25/2019,1189 OAKLAND LN SW,403,Oakland City,S,33.71965,-84.42713,
LARCENY-FROM VEHICLE,191450690,05/25/2019,2809 PEYTON CROSSING DRIVE SW,406,,I,33.7367,-84.47832,
LARCENY-NON VEHICLE,191451584,05/25/2019,3500 MARTIN L KING JR DR SW,407,Adamsville,H,33.75735,-84.50282,
LARCENY-FROM VEHICLE,191442338,05/24/2019,964 RALPH D ABERNATHY BLVD SW,401,West End,T,33.73773,-84.41962,
ROBBERY,191440225,05/24/2019,902 WESTMONT RD SW,402,Oakland City,S,33.73062,-84.43721,
BURGLARY,191442548,05/24/2019,1806 FORT VALLEY DR SW,410,Pomona Park,R,33.70573,-84.45015,
BURGLARY,191440984,05/24/2019,481 W ONTARIO AVE SW,404,Westview,T,33.74195,-84.44008,
BURGLARY,191441681,05/24/2019,1771 FORT VALLEY DR SW,410,Pomona Park,R,33.70665,-84.4508,
LARCENY-NON VEHICLE,191441861,05/24/2019,2178 CAMPBELLTON RD SW,410,Campbellton Road,R,33.70514,-84.45947,
LARCENY-NON VEHICLE,191441573,05/24/2019,2841 GREENBRIAR PKWY SW @GREENBRIAR MALL,411,Greenbriar,R,33.68677,-84.49773,
BURGLARY,191441036,05/24/2019,1760 ROGERS AVE SW,404,Westview,T,33.73711,-84.4453,
LARCENY-NON VEHICLE,191431376,05/23/2019,535 LEE ST SW,401,West End,T,33.74042,-84.41435,
BURGLARY,191432443,05/23/2019,1791 N OLYMPIAN WAY SW,404,Westview,T,33.73648,-84.44637,
BURGLARY,191431145,05/23/2019,1371 KIMBERLY WAY SW,412,Ashley Courts,P,33.71771,-84.52315,
AGG ASSAULT,191430843,05/23/2019,806 LEE ST SW,401,West End,T,33.73528,-84.41421,
LARCENY-FROM VEHICLE,191431961,05/23/2019,3 FAIRBURN RD SW,407,Adamsville,H,33.75929,-84.50557,
LARCENY-FROM VEHICLE,191430730,05/23/2019,525 CONSTELLATION OVERLOOK SW,407,Mays,H,33.74194,-84.50306,
LARCENY-FROM VEHICLE,191430297,05/23/2019,779 RALPH D ABERNATHY BLVD SW,401,West End,T,33.73844,-84.41319,
LARCENY-FROM VEHICLE,191430552,05/23/2019,770 NEHEMIAH LN SW,407,Mays,H,33.74147,-84.50558,
AUTO THEFT,191430621,05/23/2019,590 CASCADE AVE SW @KROGER - CASCADE,402,West End,T,33.73812,-84.43276,
AUTO THEFT,191422486,05/22/2019,785 LEE ST SW,401,West End,T,33.73358,-84.41449,
LARCENY-NON VEHICLE,191421974,05/22/2019,1137 ARLINGTON AVE SW,402,Oakland City,S,33.72482,-84.42508,
LARCENY-FROM VEHICLE,191422558,05/22/2019,3540 N CAMP CREEK PKWY SW @STONECREEK APT,414,,P,33.66831,-84.5001,
LARCENY-FROM VEHICLE,191421003,05/22/2019,1300 CAMPBELLTON RD SW,408,Oakland City,S,33.71585,-84.43058,
LARCENY-FROM VEHICLE,191422029,05/22/2019,1461 BOULEVARD LORRAINE SW,409,Adams Park,R,33.71542,-84.45825,
LARCENY-FROM VEHICLE,191422010,05/22/2019,505 FAIRBURN RD SW,407,Fairburn Mays,H,33.73972,-84.51084,
LARCENY-FROM VEHICLE,191421245,05/22/2019,854 OAK ST SW,401,West End,T,33.74057,-84.41685,
LARCENY-NON VEHICLE,191421544,05/22/2019,4511 CAMPBELLTON RD SW,412,,P,33.69625,-84.53567,
AGG ASSAULT,191422288,05/22/2019,2600 MARTIN L KING JR DR SW,405,Harland Terrace,I,33.75317,-84.47247,
BURGLARY,191420661,05/22/2019,1771 FORT VALLEY DR SW,410,Pomona Park,R,33.70665,-84.4508,
BURGLARY,191420426,05/22/2019,1699 WESTWOOD AVENUE SW,404,Westview,T,33.73874,-84.44332,
BURGLARY,191421310,05/22/2019,2841 GREENBRIAR PKWY SW @Multiple,411,Greenbriar,R,33.68677,-84.49773,
BURGLARY,191420425,05/22/2019,836 WESTMONT RD SW,402,Oakland City,S,33.73243,-84.43715,
AUTO THEFT,191421209,05/22/2019,3416 WELCOME ALL RD SW,414,Ben Hill,P,33.66085,-84.52192,
AUTO THEFT,191420517,05/22/2019,1935 ALISON CT SW,410,Fort Valley,R,33.70055,-84.45149,
BURGLARY,191410261,05/21/2019,1282 RICHLAND RD SW,402,Oakland City,S,33.73056,-84.42942,
BURGLARY,191411141,05/21/2019,1613 ROGERS AVE SW,404,Westview,T,33.73748,-84.44053,
AGG ASSAULT,191410030,05/21/2019,1332 CAMPBELLTON RD SW,408,Venetian Hills,S,33.71539,-84.43157,
BURGLARY,191412326,05/21/2019,3540 N CAMP CREEK PKWY SW,414,,P,33.67051,-84.50299,
LARCENY-NON VEHICLE,191411114,05/21/2019,3660 MARTIN L KING JR DR SW,407,Adamsville,H,33.76217,-84.50865,
LARCENY-FROM VEHICLE,191410883,05/21/2019,3885 PRINCETON LAKES WAY SW,414,Princeton Lakes,P,33.66007,-84.51457,
LARCENY-FROM VEHICLE,191410970,05/21/2019,3160 GREENBRIAR PKWY SW,411,Greenbriar,R,33.68593,-84.49685,
LARCENY-FROM VEHICLE,191411819,05/21/2019,2261 FAIRBURN RD SW,412,Kings Forest,P,33.69284,-84.51142,
LARCENY-FROM VEHICLE,191412233,05/21/2019,1454 WESTMONT RD SW,403,Venetian Hills,S,33.71555,-84.4374,
LARCENY-NON VEHICLE,191412105,05/21/2019,2405 FAIRBURN RD SW,413,,P,33.6889,-84.51291,
LARCENY-NON VEHICLE,191410815,05/21/2019,1346 ALMONT DRIVE SW,403,Oakland City,S,33.72572,-84.43192,
LARCENY-NON VEHICLE,191411180,05/21/2019,715 JEWEL CT SW,412,Midwest Cascade,Q,33.72595,-84.5495,
LARCENY-NON VEHICLE,191400587,05/20/2019,4465 CAMPBELLTON RD SW,412,,P,33.69704,-84.53462,
AUTO THEFT,191400205,05/20/2019,2456 MARTIN L KING JR DR SW,405,Harland Terrace,I,33.75166,-84.46789,
LARCENY-FROM VEHICLE,191401069,05/20/2019,3850 STONE RD SW,413,,P,33.68437,-84.51105,
LARCENY-NON VEHICLE,191400676,05/20/2019,3030 HEADLAND DR SW,411,Greenbriar,R,33.68841,-84.48742,
BURGLARY,191401375,05/20/2019,2673 DODSON TER SW,410,Campbellton Road,R,33.69879,-84.47612,
BURGLARY,191400361,05/20/2019,1282 RICHLAND RD SW,402,Oakland City,S,33.73056,-84.42942,
BURGLARY,191400495,05/20/2019,3734 MARTIN L KING JR DR SW,407,Adamsville,H,33.76494,-84.51081,
BURGLARY,191402209,05/20/2019,717 KENNOLIA DR SW,404,Westwood Terrace,I,33.73541,-84.44956,
BURGLARY,191400290,05/20/2019,404 W ONTARIO AVE SW,404,Westview,T,33.74424,-84.43942,
AUTO THEFT,191401237,05/20/2019,3157 DALEVIEW WAY SW,414,Princeton Lakes,P,33.66951,-84.51217,
AUTO THEFT,191400634,05/20/2019,1568 PINEVIEW TER SW,403,Cascade Avenue/Road,S,33.72903,-84.43926,
AUTO THEFT,191401629,05/20/2019,1274 LOCKWOOD DR SW,403,Venetian Hills,S,33.72043,-84.43845,
AGG ASSAULT,191391882,05/19/2019,3770 PRINCETON LAKES PKWY SW,414,Princeton Lakes,P,33.65759,-84.51129,
ROBBERY,191392186,05/19/2019,300 WILSON MILL RD,407,Fairburn Road/Wisteria Lane,H,33.75314,-84.51261,
AGG ASSAULT,191390397,05/19/2019,320 FAIRBURN RD SW,407,Fairburn Mays,H,33.7451,-84.50858,
AGG ASSAULT,191390462,05/19/2019,I-20 EB EXPY SW / JOSEPH E LOWERY BLVD SW,401,West End,T,33.74144,-84.41766,
LARCENY-FROM VEHICLE,191391844,05/19/2019,1010 WHITE ST SW,401,West End,T,33.73212,-84.42062,
LARCENY-FROM VEHICLE,191390555,05/19/2019,1981 SAND DUNE CT SW,412,Sandlewood Estates,P,33.70177,-84.54114,
LARCENY-FROM VEHICLE,191391341,05/19/2019,504 CULBERSON ST SW,401,West End,T,33.74124,-84.42214,
AUTO THEFT,191391436,05/19/2019,2405 FAIRBURN RD SW @BEN HILL PARK,413,,P,33.6889,-84.51291,
AUTO THEFT,191391156,05/19/2019,232 WHITWORTH DR SW,407,Baker Hills,H,33.76053,-84.51943,
LARCENY-NON VEHICLE,191390736,05/19/2019,320 FAIRBURN RD SW,407,Fairburn Mays,H,33.7451,-84.50858,
AUTO THEFT,191381014,05/18/2019,3580 CAMPBELLTON RD SW,413,,P,33.6899,-84.50584,
AUTO THEFT,191381593,05/18/2019,2740 GREENBRIAR PKWY SW,411,Greenbriar,R,33.68896,-84.48909,
LARCENY-FROM VEHICLE,191380729,05/18/2019,600 HOPKINS ST SW,401,West End,T,33.73916,-84.43056,
LARCENY-FROM VEHICLE,191382164,05/18/2019,1111 LUCILE AVE SW,401,West End,T,33.7423,-84.42523,
AGG ASSAULT,191382005,05/18/2019,1411 VENETIAN DR SW,403,Venetian Hills,S,33.71493,-84.43443,
ROBBERY,191382039,05/18/2019,1187 OAKLAND LN SW,403,Oakland City,S,33.71965,-84.4271,
AGG ASSAULT,191382235,05/18/2019,320 FAIRBURN RD SW,407,Fairburn Mays,H,33.7451,-84.50858,
AGG ASSAULT,191382327,05/18/2019,400 FAIRBURN RD SW,407,Fairburn Mays,H,33.74366,-84.50936,
AGG ASSAULT,191381532,05/18/2019,405 FAIRBURN RD SW,407,Wildwood (NPU-H),H,33.74367,-84.50959,
AGG ASSAULT,191371056,05/17/2019,3145 SPREADING OAK DR SW,406,Green Forest Acres,I,33.73097,-84.49098,
ROBBERY,191361391,05/17/2019,2059 W CEDAR LA SW,409,Adams Park,R,33.71372,-84.45579,
AGG ASSAULT,191371036,05/17/2019,1960 W KIMBERLY RD SW,412,Ben Hill Terrace,P,33.70176,-84.5242,
BURGLARY,191371658,05/17/2019,1375 ALMONT DR SW,403,Oakland City,S,33.72617,-84.43298,
BURGLARY,191370736,05/17/2019,104 CANDLELIGHT LN SW,407,Baker Hills,H,33.75717,-84.52014,
BURGLARY,191371090,05/17/2019,1554 RICHLAND RD SW,403,Cascade Avenue/Road,S,33.73129,-84.43866,
LARCENY-FROM VEHICLE,191371264,05/17/2019,273 FENNEL WAY SW,407,Wilson Mill Meadows,H,33.75505,-84.5167,
LARCENY-FROM VEHICLE,191372350,05/17/2019,1072 CASCADE AVE SW,403,Cascade Avenue/Road,S,33.72605,-84.44581,
LARCENY-FROM VEHICLE,191371063,05/17/2019,850 OAK ST SW @WEST END MALL,401,West End,T,33.74057,-84.4168,
AUTO THEFT,191370667,05/17/2019,3902 STONE RD SW,413,,P,33.68637,-84.51227,
AUTO THEFT,191370168,05/17/2019,3749 CAMPBELLTON RD SW,412,Ben Hill Acres,P,33.69085,-84.51112,
AUTO THEFT,191372366,05/17/2019,2900 CAMPBELLTON RD SW,409,Southwest,R,33.69761,-84.48336,
AUTO THEFT,191372306,05/17/2019,I-285 NB EXPY SW / GREENBRIAR PKWY SW,411,Greenbriar,R,33.68402,-84.4998,
AUTO THEFT,191371841,05/17/2019,717 LEE ST SW,401,West End,T,33.73463,-84.41436,
AUTO THEFT,191371328,05/17/2019,4139 CAMPBELLTON RD SW,413,Ben Hill Terrace,P,33.69558,-84.52384,
AUTO THEFT,191360595,05/16/2019,2220 CAMPBELLTON RD SW,410,Campbellton Road,R,33.7044,-84.46144,
LARCENY-FROM VEHICLE,191361364,05/16/2019,850 OAK ST SW @WEST END MALL,401,West End,T,33.74057,-84.4168,
LARCENY-FROM VEHICLE,191361980,05/16/2019,2167 CHADWICK RD SW,412,Ben Hill Terrace,P,33.6947,-84.52108,
LARCENY-NON VEHICLE,191362181,05/16/2019,576 LEE ST SW,401,West End,T,33.73921,-84.41367,
BURGLARY,191361613,05/16/2019,1038 WHITE ST SW,401,West End,T,33.73195,-84.42191,
BURGLARY,191360651,05/16/2019,2328 CAMPBELLTON RD SW @APPLETREE TOWNHOUSE,410,Campbellton Road,R,33.70419,-84.46339,
BURGLARY,191362077,05/16/2019,736 PLAINVILLE TRL SW,407,Wildwood (NPU-H),H,33.74113,-84.52145,
AGG ASSAULT,191360096,05/16/2019,2780 TEE RD SW,405,Harland Terrace,I,33.75032,-84.47892,
ROBBERY,191360042,05/16/2019,286 WILSON MILL RD SW @KINDEZI SCHOOL WEST,407,Wisteria Gardens,H,33.7547,-84.51365,
ROBBERY,191351082,05/15/2019,2240 BEECHER ROAD SW,406,Beecher Hills,I,33.72864,-84.46137,
AGG ASSAULT,191352150,05/15/2019,1935 ALISON CT SW @FRANCISCAN CLUB APT,410,Fort Valley,R,33.70045,-84.45071,
ROBBERY,191351144,05/15/2019,1587 ALDER LN SW,408,Venetian Hills,S,33.71236,-84.44877,
AGG ASSAULT,191342393,05/15/2019,2456 MARTIN L KING JR DR SW,405,Harland Terrace,I,33.75166,-84.46789,
LARCENY-NON VEHICLE,191352341,05/15/2019,4511 CAMPBELLTON RD SW,412,,P,33.69625,-84.53567,
LARCENY-NON VEHICLE,191350695,05/15/2019,4855 CAMPBELLTON RD SW,412,,P,33.69957,-84.54495,
LARCENY-FROM VEHICLE,191350356,05/15/2019,3833 PRINCETON LAKES CT SW,414,Princeton Lakes,P,33.65684,-84.51316,
LARCENY-FROM VEHICLE,191351270,05/15/2019,1331 ALMONT DR SW,403,Oakland City,S,33.72615,-84.4315,
AUTO THEFT,191352490,05/15/2019,1801 DELOWE DR SW,410,Campbellton Road,R,33.70583,-84.45771,
AUTO THEFT,191352353,05/15/2019,3 FAIRBURN RD SW,407,Adamsville,H,33.75929,-84.50557,
AUTO THEFT,191352339,05/15/2019,3670 CAMP CREEK PKWY SW,414,Princeton Lakes,P,33.655,-84.50859,
AUTO THEFT,191342267,05/14/2019,516 LEE ST SW,401,West End,T,33.74087,-84.41346,
LARCENY-NON VEHICLE,191341192,05/14/2019,3640 CAMPBELLTON RD SW,413,,P,33.68972,-84.50763,
LARCENY-FROM VEHICLE,191342112,05/14/2019,3896 PRINCETON LAKES WAY SW,414,Princeton Lakes,P,33.66091,-84.51461,
LARCENY-FROM VEHICLE,191342070,05/14/2019,850 OAK ST SW @WEST END MALL,401,West End,T,33.74053,-84.41671,
LARCENY-FROM VEHICLE,191341369,05/14/2019,3420 CEDAR ISLAND DR SW,406,West Manor,I,33.73831,-84.49959,
LARCENY-FROM VEHICLE,191341827,05/14/2019,3330 MARTIN L KING JR DR SW,407,Adamsville,H,33.75392,-84.49736,
LARCENY-FROM VEHICLE,191340748,05/14/2019,1717 CENTRA VILLA DR,409,Piedmont Heights,F,33.80856,-84.37506,
BURGLARY,191340939,05/14/2019,4059 WISTERIA LN SW,407,Wisteria Gardens,H,33.75986,-84.50951,
AGG ASSAULT,191342240,05/14/2019,3540 N CAMP CREEK PKWY SW,414,,P,33.67051,-84.50299,
AGG ASSAULT,191340026,05/14/2019,1935 ALISON CT SW,410,Fort Valley,R,33.70055,-84.45149,
BURGLARY,191331157,05/13/2019,1283 RICHLAND ROAD SW,402,Oakland City,S,33.73103,-84.42956,
AGG ASSAULT,191331052,05/13/2019,3200 STONE RD SW,411,Greenbriar,R,33.6697,-84.49403,
AGG ASSAULT,191332282,05/13/2019,1481 OLIVE ST SW,408,Venetian Hills,S,33.71461,-84.43146,
ROBBERY,191330126,05/13/2019,1935 ALISON CT SW,410,Fort Valley,R,33.70055,-84.45149,
LARCENY-NON VEHICLE,191331991,05/13/2019,507 JOSEPH E LOWERY BLVD SW,401,West End,T,33.74097,-84.41809,
LARCENY-NON VEHICLE,191331367,05/13/2019,2075 ALISON CT SW,410,Campbellton Road,R,33.70105,-84.45656,
BURGLARY,191330897,05/13/2019,1286 BEECHER ST SW,402,Oakland City,S,33.733,-84.42971,
BURGLARY,191330579,05/13/2019,1096 PEEPLES STREET SW,402,Oakland City,S,33.72509,-84.4249,
BURGLARY,191330877,05/13/2019,1869 FORT VALLEY DR SW,410,Pomona Park,R,33.70395,-84.45065,
BURGLARY,191331316,05/13/2019,908 HALL ST SW,402,Oakland City,S,33.73031,-84.42543,
BURGLARY,191330840,05/13/2019,898 OAK ST SW,401,West End,T,33.74057,-84.41738,
LARCENY-NON VEHICLE,191331934,05/13/2019,187 FAIRBURN RD SW,407,Fairburn Mays,H,33.7506,-84.50773,
LARCENY-FROM VEHICLE,191331771,05/13/2019,854 OAK ST SW,401,West End,T,33.74057,-84.41685,
LARCENY-FROM VEHICLE,191330436,05/13/2019,1270 SELLS AVE SW,401,West End,T,33.74516,-84.42941,
LARCENY-FROM VEHICLE,191331245,05/13/2019,3700 PRINCETON LAKES PKWY SW,414,Princeton Lakes,P,33.65959,-84.50949,
LARCENY-FROM VEHICLE,191330950,05/13/2019,921 RALPH D ABERNATHY BLVD SW,401,West End,T,33.73807,-84.41811,
AUTO THEFT,191332280,05/13/2019,2340 HIGHVIEW RD SW,406,Beecher Hills,I,33.72958,-84.46436,
AUTO THEFT,191331738,05/13/2019,1053 CASCADE CIR SW @JOHN A WHITE GOLF CO,403,Cascade Avenue/Road,S,33.72606,-84.44956,
AUTO THEFT,191320800,05/12/2019,2997 CAMPBELLTON RD SW,409,Southwest,R,33.69655,-84.48597,
LARCENY-FROM VEHICLE,191320984,05/12/2019,3084 EASTBROOK TERRACE SW,414,Princeton Lakes,P,33.67184,-84.51044,
LARCENY-FROM VEHICLE,191320727,05/12/2019,2289 DEERWOOD DRIVE SW,414,Ben Hill,P,33.67061,-84.51515,
LARCENY-FROM VEHICLE,191320813,05/12/2019,542 PEEPLES ST SW,401,West End,T,33.74015,-84.42026,
LARCENY-FROM VEHICLE,191321711,05/12/2019,3212 TALLON LN SW,409,Southwest,R,33.7015,-84.49576,
LARCENY-FROM VEHICLE,191321700,05/12/2019,3071 DAWSON LN SW,414,Princeton Lakes,P,33.67134,-84.50928,
LARCENY-NON VEHICLE,191321181,05/12/2019,850 OAK ST SW @WEST END MALL,401,West End,T,33.74057,-84.4168,
LARCENY-NON VEHICLE,191320938,05/12/2019,3892 CAMPBELLTON RD SW,413,,P,33.69152,-84.51592,
BURGLARY,191321456,05/12/2019,2117 BEECHER CIR SW,406,Beecher Hills,I,33.7341,-84.45744,
ROBBERY,191321300,05/12/2019,396 BROWNLEE RD SW,406,,I,33.74635,-84.49705,
HOMICIDE,191312224,05/11/2019,494 GLENDALOUGH PL SW,404,Westview,T,33.74164,-84.44253,
AGG ASSAULT,191310185,05/11/2019,3560 HOGAN RD SW,414,Brentwood,P,33.67462,-84.50531,
LARCENY-NON VEHICLE,191311654,05/11/2019,2841 GREENBRIAR PKWY SW @GREENBRIAR MALL,411,Greenbriar,R,33.68677,-84.49773,
BURGLARY,191310751,05/11/2019,1339 LORENZO DRIVE SW,403,Venetian Hills,S,33.71858,-84.43288,
LARCENY-FROM VEHICLE,191311555,05/11/2019,850 OAK ST SW,401,West End,T,33.74057,-84.4168,
LARCENY-FROM VEHICLE,191310632,05/11/2019,854 OAK ST SW,401,West End,T,33.74057,-84.41685,
AUTO THEFT,191311542,05/11/2019,3030 HEADLAND DR SW,411,Greenbriar,R,33.68841,-84.48742,
AUTO THEFT,191302234,05/10/2019,3580 CAMPBELLTON RD SW,413,,P,33.6899,-84.50584,
LARCENY-FROM VEHICLE,191300528,05/10/2019,3961 LA SALLE WAY SW,407,Baker Hills,H,33.76019,-84.51725,
LARCENY-FROM VEHICLE,191300747,05/10/2019,3200 STONE RD SW,411,Greenbriar,R,33.6697,-84.49403,
LARCENY-FROM VEHICLE,191300508,05/10/2019,1941 MYRTLE DR SW,410,Campbellton Road,R,33.70313,-84.45511,
LARCENY-NON VEHICLE,191300781,05/10/2019,3456 WELCOME ALL ROAD SW,414,Ben Hill,P,33.65888,-84.52107,
LARCENY-NON VEHICLE,191300714,05/10/2019,3715 ADAMSVILLE DR SW,407,Adamsville,H,33.76207,-84.50918,
AGG ASSAULT,191301702,05/10/2019,3030 CONTINENTAL COLONY PKWY SW,411,Greenbriar,R,33.68035,-84.49154,
ROBBERY,191300265,05/10/2019,2295 BUTNER RD SW,413,Fairburn,P,33.6907,-84.52754,
AGG ASSAULT,191300907,05/10/2019,2909 CAMPBELLTON RD SW,409,Southwest,R,33.69869,-84.48265,
ROBBERY,191290390,05/09/2019,2959 CAMPBELLTON RD SW,409,Southwest,R,33.69731,-84.48504,
LARCENY-NON VEHICLE,191291423,05/09/2019,1072 CASCADE AVE SW,403,Cascade Avenue/Road,S,33.72605,-84.44581,
BURGLARY,191290634,05/09/2019,717 LEE ST SW,401,West End,T,33.7356,-84.41509,
LARCENY-NON VEHICLE,191290554,05/09/2019,3902 STONE RD SW,413,,P,33.68637,-84.51227,
LARCENY-NON VEHICLE,191291594,05/09/2019,3273 SAVILLE ST SW,414,Princeton Lakes,P,33.66281,-84.51757,
LARCENY-NON VEHICLE,191291138,05/09/2019,1101 DONNELLY AVE SW,402,Oakland City,S,33.73165,-84.4234,
LARCENY-NON VEHICLE,191290739,05/09/2019,929 CASCADE AVE SW,404,Cascade Avenue/Road,S,33.73002,-84.4411,
LARCENY-FROM VEHICLE,191292413,05/09/2019,612 LEE ST SW,401,West End,T,33.7388,-84.4136,
LARCENY-FROM VEHICLE,191290518,05/09/2019,479 WILLARD AVE SW,404,Westview,T,33.74202,-84.4369,
LARCENY-FROM VEHICLE,191290417,05/09/2019,3030 CONTINENTAL COLONY PKWY SW,411,Greenbriar,R,33.68066,-84.49371,
AUTO THEFT,191290209,05/09/2019,3160 GREENBRIAR PKWY,411,Greenbriar,R,33.68593,-84.49685,
AUTO THEFT,191291263,05/09/2019,605 LYNN VALLEY RD SW,406,,I,33.73905,-84.48385,
AUTO THEFT,191281037,05/08/2019,2900 LANDRUM DR SW,409,Southwest,R,33.70623,-84.48372,
LARCENY-FROM VEHICLE,191282176,05/08/2019,3160 GREENBRIAR PKWY SW,411,Greenbriar,R,33.68593,-84.49685,
LARCENY-FROM VEHICLE,191280361,05/08/2019,3331 TIARA CIR SW,409,Southwest,R,33.70218,-84.4965,
LARCENY-FROM VEHICLE,191280245,05/08/2019,3113 CAMPBELLTON RD SW,409,Southwest,R,33.69261,-84.49098,
LARCENY-FROM VEHICLE,191280546,05/08/2019,1717 CENTRA VILLA DR SW,409,Adams Park,R,33.70928,-84.45571,
LARCENY-FROM VEHICLE,191281006,05/08/2019,2395 BUTNER RD SW,413,Fairburn,P,33.69026,-84.52538,
LARCENY-FROM VEHICLE,191281232,05/08/2019,3031 HEADLAND DR SW,411,Greenbriar,R,33.69003,-84.4873,
LARCENY-FROM VEHICLE,191281203,05/08/2019,2264 COUNTRY CLUB DR SW,409,Southwest,R,33.69384,-84.49398,
LARCENY-NON VEHICLE,191281998,05/08/2019,2175 DERBY DR SW,410,Campbellton Road,R,33.70256,-84.4596,
LARCENY-FROM VEHICLE,191281196,05/08/2019,1762 NISKEY LAKE RD SW,412,Niskey Cove,P,33.70732,-84.52915,
BURGLARY,191282163,05/08/2019,3000 STONE HOGAN CONN SW,411,Greenbriar,R,33.67424,-84.49697,
BURGLARY,191280908,05/08/2019,1071 WHITE OAK AVE SW,402,Oakland City,S,33.72557,-84.4228,
BURGLARY,191280555,05/08/2019,3883 ADAMSVILLE DR SW,407,Baker Hills,H,33.76228,-84.51481,
BURGLARY,191280146,05/08/2019,2800 MARTIN L KING JR DR SW,405,Harland Terrace,I,33.75431,-84.4793,
BURGLARY,191280052,05/08/2019,1096 PEEPLES ST SW,402,Oakland City,S,33.72509,-84.4249,
BURGLARY,191281133,05/08/2019,1385 LORENZO DR SW,403,Venetian Hills,S,33.71718,-84.43301,
AGG ASSAULT,191280084,05/08/2019,238 HOWELL TER SW,407,Adamsville,H,33.75166,-84.50462,
AGG ASSAULT,191280870,05/08/2019,1700 STANTON RD SW,408,,R,33.70907,-84.44364,
BURGLARY,191281920,05/08/2019,650 MANSON AVE SW,404,Westview,T,33.73768,-84.44093,
AGG ASSAULT,191271962,05/07/2019,687 CASCADE AVE SW,404,Westview,T,33.73682,-84.43647,
ROBBERY,191272121,05/07/2019,3206 MOUNT GILEAD RD SW,409,Southwest,R,33.69801,-84.49383,
LARCENY-NON VEHICLE,191270616,05/07/2019,1685 N OLYMPIAN WAY SW,404,Westview,T,33.73646,-84.44291,
LARCENY-NON VEHICLE,191262300,05/07/2019,3760 PRINCETON LAKES PKWY SW,414,Princeton Lakes,P,33.65806,-84.51051,
LARCENY-NON VEHICLE,191271455,05/07/2019,1991 DELOWE DR SW,410,Campbellton Road,R,33.69983,-84.46121,
LARCENY-FROM VEHICLE,191270378,05/07/2019,3211 SAVILLE ST SW,414,Princeton Lakes,P,33.66634,-84.51603,
AUTO THEFT,191271561,05/07/2019,1560 ORLANDO ST SW,403,Cascade Avenue/Road,S,33.72375,-84.43917,
AUTO THEFT,191270733,05/07/2019,3000 HEADLAND DR SW,411,Greenbriar,R,33.68923,-84.48657,
AUTO THEFT,191270376,05/07/2019,3725 PRINCETON LAKES PKWY SW,414,Princeton Lakes,P,33.65777,-84.50877,
AUTO THEFT,191260625,05/06/2019,979 HOWELL PL SW,401,West End,T,33.73939,-84.41986,
AUTO THEFT,191261272,05/06/2019,3521 MOUNT GILEAD RD SW,412,Heritage Valley,P,33.70192,-84.50398,
AUTO THEFT,191261368,05/06/2019,2343 EL PASO RD SW,413,Arlington Estates,P,33.69359,-84.5386,
LARCENY-FROM VEHICLE,191260545,05/06/2019,3760 PRINCETON LAKES PKWY SW,414,Princeton Lakes,P,33.65806,-84.51051,
LARCENY-FROM VEHICLE,191260541,05/06/2019,1093 CORDOVA STREET SW,402,Oakland City,S,33.7277,-84.42497,
LARCENY-FROM VEHICLE,191260110,05/06/2019,3760 PRINCETON LAKES PKWY SW,414,Princeton Lakes,P,33.65806,-84.51051,
LARCENY-NON VEHICLE,191260945,05/06/2019,3113 CAMPBELLTON RD SW,409,Southwest,R,33.69261,-84.49098,
LARCENY-FROM VEHICLE,191261976,05/06/2019,3760 CAMP CREEK PKWY SW,414,Princeton Lakes,P,33.6547,-84.50927,
LARCENY-FROM VEHICLE,191261155,05/06/2019,2260 CASCADE RD SW,409,Adams Park,R,33.72228,-84.46253,
LARCENY-NON VEHICLE,191260739,05/06/2019,2929 LANDRUM DR SW,409,Southwest,R,33.70623,-84.48388,
BURGLARY,191260102,05/06/2019,2260 CAMPBELLTON RD SW,410,Campbellton Road,R,33.70459,-84.46212,
BURGLARY,191250414,05/05/2019,785 LEE ST SW,401,West End,T,33.73358,-84.41449,
BURGLARY,191251103,05/05/2019,1726 S GORDON ST SW,404,Westview,T,33.73949,-84.44452,
LARCENY-NON VEHICLE,191251042,05/05/2019,3050 MARTIN L KING JR DR SW,405,Harland Terrace,I,33.75177,-84.4857,
AGG ASSAULT,191251546,05/05/2019,2457 MARTIN L KING JR DR SW,405,Harland Terrace,I,33.7523,-84.46786,
AGG ASSAULT,191250820,05/05/2019,424 TARRAGON WAY SW,407,Wilson Mill Meadows,H,33.75083,-84.51697,
AGG ASSAULT,191250760,05/05/2019,1854 CUMMINGS DR SW,408,Venetian Hills,S,33.71685,-84.44848,
LARCENY-NON VEHICLE,191251754,05/05/2019,2800 MARTIN L KING JR DR SW,405,Harland Terrace,I,33.75431,-84.4793,
LARCENY-FROM VEHICLE,191250246,05/05/2019,1293 LUCILE AVE SW,401,West End,T,33.74251,-84.43008,
AUTO THEFT,191250507,05/05/2019,1290 SHANTER TRL SW,409,Horseshoe Community,I,33.72046,-84.49912,
LARCENY-FROM VEHICLE,191250551,05/05/2019,2997 CAMPBELLTON RD SW,409,Southwest,R,33.69596,-84.48623,
LARCENY-FROM VEHICLE,191250810,05/05/2019,311 SCOTT ST SW,406,,I,33.74956,-84.49595,
LARCENY-FROM VEHICLE,191250121,05/05/2019,311 SCOTT ST SW,406,,I,33.74901,-84.49482,
LARCENY-FROM VEHICLE,191250969,05/05/2019,3760 PRINCETON LAKES PKWY SW,414,Princeton Lakes,P,33.65806,-84.51051,
LARCENY-FROM VEHICLE,191251552,05/05/2019,405 FAIRBURN RD SW,407,Wildwood (NPU-H),H,33.74367,-84.50959,
LARCENY-FROM VEHICLE,191251051,05/05/2019,2841 GREENBRIAR PKWY SW,411,Greenbriar,R,33.68845,-84.49328,
LARCENY-NON VEHICLE,191242086,05/04/2019,2841 GREENBRIAR PKWY SW @GREENBRIAR MALL,411,Greenbriar,R,33.68677,-84.49773,
LARCENY-FROM VEHICLE,191241416,05/04/2019,2198 ESSEX AVE SW,409,Adams Park,R,33.71818,-84.46039,
LARCENY-FROM VEHICLE,191240255,05/04/2019,3833 PRINCETON LAKES CT SW,414,Princeton Lakes,P,33.65738,-84.51309,
AUTO THEFT,191241698,05/04/2019,2756 MARTIN L KING JR DR SW,405,Harland Terrace,I,33.75405,-84.47769,
AGG ASSAULT,191240591,05/04/2019,1915 CUMMINGS DR SW,408,Venetian Hills,S,33.71764,-84.4504,
AGG ASSAULT,191240387,05/04/2019,1999 BENT CREEK WAY SW,410,Campbellton Road,R,33.70087,-84.46574,
LARCENY-NON VEHICLE,191241115,05/04/2019,3050 MARTIN L KING JR DR SW,405,Harland Terrace,I,33.75237,-84.48653,
BURGLARY,191231819,05/03/2019,3390 FAIRBURN RD SW,414,Ben Hill,P,33.6639,-84.52377,
AGG ASSAULT,191232434,05/03/2019,1582 WESTWOOD AVE SW,404,Westview,T,33.73835,-84.43947,
AUTO THEFT,191231548,05/03/2019,330 BROWNLEE RD SW,406,,I,33.74716,-84.49741,
AUTO THEFT,191231883,05/03/2019,1746 S GORDON ST SW,404,Westview,T,33.73953,-84.44501,
LARCENY-FROM VEHICLE,191231947,05/03/2019,2975 HEADLAND DR SW @BIG LOTS - HEADLAND,411,Greenbriar,R,33.69168,-84.4872,
LARCENY-FROM VEHICLE,191230900,05/03/2019,1168 EGGLESTON ST SW,401,West End,T,33.73971,-84.42603,
LARCENY-FROM VEHICLE,191231581,05/03/2019,3808 BOULDER PARK DR SW,407,Fairburn Mays,H,33.74761,-84.51153,
LARCENY-FROM VEHICLE,191220905,05/02/2019,3330 MARTIN L KING JR DR SW,407,Adamsville,H,33.75392,-84.49736,
ROBBERY,191221582,05/02/2019,1931 VENETIAN DR SW,408,Venetian Hills,S,33.71503,-84.45093,
AGG ASSAULT,191220594,05/02/2019,1660 STANTON RD SW,408,,R,33.70988,-84.44361,
BURGLARY,191222133,05/02/2019,1294 ALMONT DR SW,403,Oakland City,S,33.72569,-84.43014,
AUTO THEFT,191221165,05/02/2019,1264 WESTMONT RD SW,403,Venetian Hills,S,33.72077,-84.43738,
BURGLARY,191211147,05/01/2019,3766 HAMPSHIRE WALK SW,413,,P,33.68118,-84.51083,
BURGLARY,191211418,05/01/2019,1691 HADLOCK ST SW,408,,R,33.70934,-84.44617,
AGG ASSAULT,191212051,05/01/2019,SORRENTO CIR SW / THE FONTAINEBLEAU SW,411,Greenbriar,R,33.67885,-84.48787,
AGG ASSAULT,191210090,05/01/2019,2442 MARTIN L KING JR DR SW,405,Florida Heights,I,33.75095,-84.46728,
ROBBERY,191210392,05/01/2019,2221 CAMPBELLTON RD SW,409,Adams Park,R,33.70558,-84.46103,
HOMICIDE,191202426,05/01/2019,3901 CAMPBELTON RD,412,Kings Forest,P,33.69486,-84.5152,
ROBBERY,191210285,05/01/2019,3160 GREENBRIAR PKWY SW,411,Greenbriar,R,33.68593,-84.49685,
ROBBERY,191210420,05/01/2019,2400 CAMPBELLTON RD SW @HERITAGE APTS,410,Campbellton Road,R,33.70348,-84.46644,
AGG ASSAULT,191211628,05/01/2019,2060 ALISON CT SW,410,Campbellton Road,R,33.70062,-84.45594,
LARCENY-FROM VEHICLE,191211564,05/01/2019,686 JOSEPH E LOWERY BLVD SW,401,West End,T,33.73631,-84.41761,
LARCENY-FROM VEHICLE,191211455,05/01/2019,1065 RALPH D ABERNATHY BLVD SW,401,West End,T,33.73852,-84.42265,
LARCENY-FROM VEHICLE,191211875,05/01/2019,3830 PRINCETON LAKES CT SW,414,Princeton Lakes,P,33.65666,-84.51318,
LARCENY-NON VEHICLE,191211092,05/01/2019,3050 MARTIN L KING JR DRIVE SW,405,Harland Terrace,I,33.75177,-84.4857,
LARCENY-FROM VEHICLE,191212023,05/01/2019,854 OAK ST SW,401,West End,T,33.74057,-84.41685,
LARCENY-FROM VEHICLE,191210790,05/01/2019,2000 DELOWE DR SW,410,Campbellton Road,R,33.70043,-84.45682,